~VERSION INFORMATION
 VERS.                          2.0   : CWLS LOG ASCII STANDARD - VERSION 2.0
 WRAP.                          NO    : ONE LINE PER DEPTH STEP
#
~Well Information Section
#MNEM     .UNIT     DATA                DESCRIPTION
#-----    -----     --------            --------------
 STRT     .M        30.0000             : START DEPTH
 STOP     .M        1899.9708           : END DEPTH
 STEP     .M        0.0000              : INCREMENT DEPTH
 NULL     .         -999.2500           : NULL VALUE
 COMP     .                              :
 WELL     .         F03-04              : WELL NAME
 EKB      .M        30.0000             : KELLY BUSHING ELEVATION
 EGL      .M        0.0000              : GROUND LEVEL ELEVATION
 EPD      .M        0.0000              : PERMANENT DATUM ELEVATION
 FLD      .                              :
XWELL		.M		623256		: XWELL LOCATION
YWELL		.M		6082586		: YWELL LOCATION
 PROV     .                              :
 SRVC     .                              :
 PROV     .                              :
 DATE     .                              :
 API      .                              :
#
~Curve Information Section
#MNEM     .UNIT               Curve #DESCRIPTION
#-----    -----               ----   --------------
 DEPTH    .M                  : 1     Name = Domain Curve - Type = DEPTH
 RHOB     .g/cc               : 2     Name = Density_math - Type = Density
 GR       .API                : 3     Name = Gamma Ray_math - Type = Gamma Ray
 DT       .us/ft              : 4     Name = P-wave_1 - Type = P-wave
 DT       .us/ft              : 5     Name = P-wave_corr - Type = P-wave
 UNKNOWN  .fraction           : 6     Name = Porosity_math - Type = Porosity
~A (ASCII LOG DATA)
# ...
  881.4816          2.2139         53.6500        131.4213        130.8135          0.2726
  881.6340          2.2139         53.6500        131.4213        130.8123          0.2726
  881.7864          2.2139         53.6500        131.4213        130.8112          0.2726
  881.9388          2.2139         53.0500        131.4213        130.8108          0.2726
  882.0912          2.2139         53.0500        131.4213        130.8098          0.2726
  882.2436          2.2129         53.0500        131.6041        130.9921          0.2732
  882.3960          2.2071         53.9500        132.6091        131.9970          0.2768
  882.5484          2.2071         53.9500        132.6091        131.9963          0.2768
  882.7008          2.2071         53.9500        132.6091        131.9962          0.2768
  882.8532          2.2071         53.3500        132.6091        131.9959          0.2768
  883.0056          2.2071         52.7500        132.6091        131.9959          0.2768
  883.1580          2.2071         52.1500        132.6091        131.9961          0.2768
  883.3104          2.2071         52.1500        132.6091        131.9960          0.2768
  883.4628          2.2071         51.8500        132.6091        131.9963          0.2768
  883.6152          2.2071         51.2500        132.6091        131.9972          0.2768
  883.7676          2.2071         51.2500        132.6091        131.9970          0.2768
  883.9200          2.2071         50.9500        132.6091        131.9976          0.2768
  884.0724          2.2071         50.9500        132.6091        131.9974          0.2768
  884.2248          2.2071         50.9500        132.6091        131.9987          0.2768
  884.3772          2.2071         52.7500        132.6091        131.9996          0.2768
  884.5296          2.2065         55.1500        132.7005        132.0916          0.2772
  884.6820          2.2049         55.7500        132.9746        132.3671          0.2782
  884.8344          2.2049         55.8381        132.9746        132.3681          0.2782
  884.9868          2.2049         55.8381        132.9746        132.3701          0.2782
  885.1392          2.2039         55.8381        133.1574        132.5535          0.2788
  885.2916          2.2039         54.5500        133.1574        132.5545          0.2788
  885.4440          2.2039         51.5500        133.1574        132.5558          0.2788
  885.5964          2.2039         50.4059        133.1574        132.5561          0.2788
  885.7488          2.2039         50.3500        133.1574        132.5580          0.2788
  885.9012          2.2039         50.3500        133.1574        132.5591          0.2788
  886.0536          2.2039         50.3500        133.1574        132.5609          0.2788
  886.2060          2.2039         56.3500        133.1574        132.5617          0.2788
  886.3584          2.2039         56.3500        133.1574        132.5628          0.2788
  886.5108          2.2039         56.3500        133.1574        132.5642          0.2788
  886.6632          2.2039         56.9500        133.1574        132.5654          0.2788
  886.8156          2.2039         56.9500        133.1574        132.5667          0.2788
  886.9680          2.2039         57.2500        133.1574        132.5677          0.2788
  887.1204          2.2039         57.2500        133.1574        132.5694          0.2788
  887.2728          2.2049         57.2500        132.9746        132.3878          0.2782
  887.4252          2.2049         55.4500        132.9746        132.3881          0.2782
  887.5776          2.2049         54.8500        132.9746        132.3903          0.2782
  887.7300          2.2049         54.2500        132.9746        132.3915          0.2782
  887.8824          2.2055         54.2500        132.8833        132.3015          0.2778
  888.0348          2.2055         54.2500        132.8833        132.3026          0.2778
  888.1872          2.2060         54.8500        132.7919        132.2130          0.2775
  888.3396          2.2055         54.8500        132.8833        132.3056          0.2778
  888.4920          2.2018         54.8500        133.5228        132.9473          0.2801
  888.6444          2.2018         53.6500        133.5228        132.9480          0.2801
  888.7968          2.2018         53.6500        133.5228        132.9497          0.2801
  888.9492          2.2018         53.6500        133.5228        132.9512          0.2801
  889.1016          2.2018         54.8500        133.5228        132.9518          0.2801
  889.2540          2.2018         55.4500        133.5228        132.9542          0.2801
  889.4064          2.2018         55.4500        133.5228        132.9556          0.2801
  889.5588          2.2023         55.4500        133.4315        132.8665          0.2798
  889.7112          2.2023         55.1500        133.4315        132.8675          0.2798
  889.8636          2.2028         54.9387        133.3401        132.7777          0.2795
  890.0160          2.2034         54.9387        133.2487        132.6882          0.2791
  890.1684          2.2060         54.9387        132.7919        132.2331          0.2775
  890.3208          2.2071         54.7558        132.6091        132.0524          0.2768
  890.4732          2.2181         54.5500        130.6904        130.1349          0.2699
  890.6256          2.2192         53.0500        130.5076        129.9541          0.2693
  890.7780          2.2192         51.5500        130.5076        129.9559          0.2693
  890.9304          2.2192         51.5500        130.5076        129.9578          0.2693
  891.0828          2.2197         51.5500        130.4162        129.8686          0.2689
  891.2352          2.2197         53.9500        130.4162        129.8711          0.2689
  891.3876          2.2202         55.1500        130.3249        129.7812          0.2686
  891.5400          2.2202         55.1500        130.3249        129.7834          0.2686
  891.6924          2.2202         55.1500        130.3249        129.7855          0.2686
  891.8448          2.2202         53.3500        130.3249        129.7883          0.2686
  891.9972          2.2208         52.7500        130.2335        129.6986          0.2683
  892.1496          2.2213         52.7500        130.1421        129.6094          0.2679
  892.3020          2.2213         52.7500        130.1421        129.6109          0.2679
  892.4544          2.2213         52.7500        130.1421        129.6141          0.2679
  892.6068          2.2213         52.7500        130.1421        129.6167          0.2679
  892.7592          2.2213         53.2221        130.1421        129.6190          0.2679
  892.9116          2.2213         53.6500        130.1421        129.6216          0.2679
  893.0640          2.2202         54.5500        130.3249        129.8070          0.2686
  893.2164          2.2202         54.5500        130.3249        129.8099          0.2686
  893.3688          2.2160         54.5500        131.0558        130.5435          0.2712
  893.5212          2.2150         54.8500        131.2386        130.7287          0.2719
  893.6736          2.2144         54.8500        131.3300        130.8229          0.2722
  893.8260          2.2129         55.1500        131.6041        131.0994          0.2732
  893.9784          2.2129         56.0500        131.6041        131.1029          0.2732
  894.1308          2.2118         60.8500        131.7868        131.2886          0.2739
  894.2832          2.2118         62.0500        131.7868        131.2921          0.2739
  894.4356          2.2092         62.0500        132.2437        131.7516          0.2755
  894.5880          2.2092         62.0500        132.2437        131.7547          0.2755
  894.7404          2.2092         61.4500        132.2437        131.7581          0.2755
