~VERSION INFORMATION
 VERS.                          2.0   : CWLS LOG ASCII STANDARD - VERSION 2.0
 WRAP.                          NO    : ONE LINE PER DEPTH STEP
#
~Well Information Section
#MNEM     .UNIT     DATA                DESCRIPTION
#-----    -----     --------            --------------
 STRT     .M        30.0000             : START DEPTH
 STOP     .M        1899.9708           : END DEPTH
 STEP     .M        0.0000              : INCREMENT DEPTH
 NULL     .         -999.2500           : NULL VALUE
 COMP     .                              :
 WELL     .         F03-04              : WELL NAME
 EKB      .M        30.0000             : KELLY BUSHING ELEVATION
 EGL      .M        0.0000              : GROUND LEVEL ELEVATION
 EPD      .M        0.0000              : PERMANENT DATUM ELEVATION
 FLD      .                              :
XWELL		.M		623256		: XWELL LOCATION
YWELL		.M		6082586		: YWELL LOCATION
 PROV     .                              :
 SRVC     .                              :
 PROV     .                              :
 DATE     .                              :
 API      .                              :
#
~Curve Information Section
#MNEM     .UNIT               Curve #DESCRIPTION
#-----    -----               ----   --------------
 DEPTH    .M                  : 1     Name = Domain Curve - Type = DEPTH
 RHOB     .g/cc               : 2     Name = Density_math - Type = Density
 GR       .API                : 3     Name = Gamma Ray_math - Type = Gamma Ray
 DT       .us/ft              : 4     Name = P-wave_1 - Type = P-wave
 DT       .us/ft              : 5     Name = P-wave_corr - Type = P-wave
 UNKNOWN  .fraction           : 6     Name = Porosity_math - Type = Porosity
~A (ASCII LOG DATA)
# ...
 1726.3872          2.1077         42.8500        149.8127        149.8113          0.3389
 1726.5396          2.1135         42.8500        148.8028        148.8014          0.3353
 1726.6920          2.1195         42.4791        147.7665        147.7651          0.3316
 1726.8444          2.1230         41.9500        147.1574        147.1560          0.3294
 1726.9968          2.1072         41.9500        149.8985        149.8971          0.3393
 1727.1492          2.0949         41.9500        152.0305        152.0291          0.3469
 1727.3016          2.0949         41.9500        152.0305        152.0291          0.3469
 1727.4540          2.0931         41.9500        152.3350        152.3336          0.3480
 1727.6064          2.0878         42.5500        153.2487        153.2474          0.3513
 1727.7588          2.0791         42.5500        154.7716        154.7702          0.3568
 1727.9113          2.0656         43.4500        157.1066        157.1052          0.3653
 1728.0636          2.0638         44.3500        157.4112        157.4098          0.3664
 1728.2159          2.0638         46.1500        157.4112        157.4098          0.3664
 1728.3684          2.0667         47.0500        156.9035        156.9022          0.3645
 1728.5208          2.0650         47.3500        157.2081        157.2067          0.3656
 1728.6732          2.0638         48.2500        157.4112        157.4098          0.3664
 1728.8256          2.0638         48.5500        157.4112        157.4098          0.3664
 1728.9780          2.0650         48.5500        157.2081        157.2067          0.3656
 1729.1304          2.0673         48.8500        156.8020        156.8007          0.3642
 1729.2828          2.0720         49.1500        155.9899        155.9885          0.3612
 1729.4352          2.0738         49.1500        155.6853        155.6839          0.3601
 1729.5876          2.0738         49.1500        155.6853        155.6839          0.3601
 1729.7400          2.0703         48.1907        156.2944        156.2931          0.3623
 1729.8925          2.0802         46.9945        154.5685        154.5672          0.3561
 1730.0448          2.0826         46.1500        154.1624        154.1611          0.3546
 1730.1971          2.0861         44.3500        153.5533        153.5519          0.3524
 1730.3496          2.0855         44.3500        153.6548        153.6534          0.3528
 1730.5020          2.0855         44.3500        153.6548        153.6534          0.3528
 1730.6544          2.0867         44.9500        153.4518        153.4504          0.3521
 1730.8068          2.0890         45.8500        153.0486        153.0472          0.3506
 1730.9592          2.0931         47.3500        152.3350        152.3336          0.3480
 1731.1116          2.0908         47.9500        152.7411        152.7397          0.3495
 1731.2640          2.0908         47.9500        152.7411        152.7397          0.3495
 1731.4164          2.0943         47.9500        152.1320        152.1306          0.3473
 1731.5688          2.0966         46.1500        151.7259        151.7245          0.3458
 1731.7212          2.0996         44.3500        151.2183        151.2169          0.3440
 1731.8737          2.1049         44.3500        150.3046        150.3032          0.3407
 1732.0260          2.1066         44.3500        150.0000        149.9986          0.3396
 1732.1783          2.1031         44.6500        150.6091        150.6078          0.3418
 1732.3308          2.1007         44.6500        151.0152        151.0139          0.3433
 1732.4832          2.0966         44.6500        151.7259        151.7245          0.3458
 1732.6356          2.0949         44.6500        152.0305        152.0291          0.3469
 1732.7880          2.0896         44.6500        152.9442        152.9428          0.3502
 1732.9404          2.0861         44.6500        153.5533        153.5519          0.3524
 1733.0928          2.0855         45.2500        153.6548        153.6534          0.3528
 1733.2452          2.0814         45.2500        154.3655        154.3641          0.3554
 1733.3976          2.0796         45.2500        154.6700        154.6687          0.3565
 1733.5500          2.0749         44.3500        155.4822        155.4809          0.3594
 1733.7024          2.0708         44.3500        156.1929        156.1915          0.3620
 1733.8549          2.0679         44.3500        156.7005        156.6991          0.3638
 1734.0072          2.0667         45.2500        156.9035        156.9022          0.3645
 1734.1595          2.0644         45.8500        157.3096        157.3083          0.3660
 1734.3120          2.0685         45.8500        156.5990        156.5976          0.3634
 1734.4644          2.0714         45.9676        156.0914        156.0900          0.3616
 1734.6168          2.0726         46.1500        155.8883        155.8869          0.3609
 1734.7692          2.0714         46.1500        156.0914        156.0900          0.3616
 1734.9216          2.0769         46.4500        155.1424        155.1410          0.3582
 1735.0740          2.0826         47.6500        154.1624        154.1611          0.3546
 1735.2264          2.0873         47.9500        153.3503        153.3489          0.3517
 1735.3788          2.0896         47.9500        152.9442        152.9428          0.3502
 1735.5312          2.0925         47.9500        152.4366        152.4352          0.3484
 1735.6836          2.0937         47.6500        152.2335        152.2321          0.3477
 1735.8361          2.0931         47.0500        152.3350        152.3336          0.3480
 1735.9884          2.0920         45.2500        152.5381        152.5367          0.3488
 1736.1407          2.0902         42.8500        152.8426        152.8413          0.3499
 1736.2932          2.0867         42.5500        153.4518        153.4504          0.3521
 1736.4456          2.0808         42.5500        154.4670        154.4656          0.3557
 1736.5980          2.0761         42.2500        155.2792        155.2778          0.3587
 1736.7504          2.0732         42.2500        155.7868        155.7854          0.3605
 1736.9028          2.0703         42.5500        156.2944        156.2931          0.3623
 1737.0552          2.0685         42.8500        156.5990        156.5976          0.3634
 1737.2076          2.0708         42.8500        156.1929        156.1915          0.3620
 1737.3600          2.0732         44.1604        155.7868        155.7854          0.3605
 1737.5125          2.0767         46.7500        155.1777        155.1763          0.3583
 1737.6648          2.0802         47.2568        154.5685        154.5672          0.3561
 1737.8173          2.0860         47.2568        153.5698        153.5685          0.3525
 1737.9696          2.0890         47.2568        153.0457        153.0443          0.3506
 1738.1219          2.0966         45.8500        151.7259        151.7245          0.3458
 1738.2744          2.1013         43.7500        150.9137        150.9123          0.3429
 1738.4268          2.1037         43.7500        150.5076        150.5062          0.3415
 1738.5792          2.1072         43.7500        149.8985        149.8971          0.3393
 1738.7316          2.1166         43.6246        148.2741        148.2728          0.3334
 1738.8840          2.1160         43.1500        148.3756        148.3743          0.3338
 1739.0364          2.1113         43.0385        149.1878        149.1865          0.3367
 1739.1888          2.1054         42.8500        150.2132        150.2118          0.3404
 1739.3412          2.0966         42.8500        151.7259        151.7245          0.3458
 1739.4937          2.0972         42.8500        151.6244        151.6230          0.3455
 1739.6460          2.0999         44.0500        151.1574        151.1561          0.3438
