~VERSION INFORMATION
 VERS.                          2.0   : CWLS LOG ASCII STANDARD - VERSION 2.0
 WRAP.                          NO    : ONE LINE PER DEPTH STEP
#
~Well Information Section
#MNEM     .UNIT     DATA                DESCRIPTION
#-----    -----     --------            --------------
 STRT     .M        30.0000             : START DEPTH
 STOP     .M        1899.9708           : END DEPTH
 STEP     .M        0.0000              : INCREMENT DEPTH
 NULL     .         -999.2500           : NULL VALUE
 COMP     .                              :
 WELL     .         F03-04              : WELL NAME
 EKB      .M        30.0000             : KELLY BUSHING ELEVATION
 EGL      .M        0.0000              : GROUND LEVEL ELEVATION
 EPD      .M        0.0000              : PERMANENT DATUM ELEVATION
 FLD      .                              :
XWELL		.M		623256		: XWELL LOCATION
YWELL		.M		6082586		: YWELL LOCATION
 PROV     .                              :
 SRVC     .                              :
 PROV     .                              :
 DATE     .                              :
 API      .                              :
#
~Curve Information Section
#MNEM     .UNIT               Curve #DESCRIPTION
#-----    -----               ----   --------------
 DEPTH    .M                  : 1     Name = Domain Curve - Type = DEPTH
 RHOB     .g/cc               : 2     Name = Density_math - Type = Density
 GR       .API                : 3     Name = Gamma Ray_math - Type = Gamma Ray
 DT       .us/ft              : 4     Name = P-wave_1 - Type = P-wave
 DT       .us/ft              : 5     Name = P-wave_corr - Type = P-wave
 UNKNOWN  .fraction           : 6     Name = Porosity_math - Type = Porosity
~A (ASCII LOG DATA)
# ...
  509.1684          2.1600         71.0500        140.7614        145.3079          0.3063
  509.3208          2.1600         70.4500        140.7614        145.3074          0.3063
  509.4732          2.1606         69.2500        140.6599        145.2029          0.3059
  509.6256          2.1623         68.9500        140.3553        144.8973          0.3048
  509.7780          2.1629         68.9500        140.2538        144.7937          0.3044
  509.9304          2.1647         68.3500        139.9492        144.4875          0.3033
  510.0828          2.1647         67.0316        139.9492        144.4853          0.3033
  510.2352          2.1664         66.5500        139.6447        144.1785          0.3022
  510.3876          2.1664         66.2500        139.6447        144.1763          0.3022
  510.5400          2.1676         65.0570        139.4416        143.9714          0.3015
  510.6924          2.1676         64.1500        139.4416        143.9686          0.3015
  510.8448          2.1676         62.5624        139.4416        143.9671          0.3015
  510.9972          2.1699         62.3789        139.0355        143.5590          0.3000
  511.1496          2.1705         62.1953        138.9340        143.4531          0.2997
  511.3020          2.1705         62.0117        138.9340        143.4514          0.2997
  511.4544          2.1711         61.8282        138.8325        143.3468          0.2993
  511.6068          2.1711         61.6446        138.8325        143.3446          0.2993
  511.7592          2.1729         61.4500        138.5279        143.0391          0.2982
  511.9116          2.1735         59.9500        138.4264        142.9329          0.2978
  512.0640          2.1740         57.6143        138.3249        142.8299          0.2975
  512.2164          2.1746         54.8500        138.2233        142.7244          0.2971
  512.3688          2.1752         53.3500        138.1218        142.6199          0.2967
  512.5212          2.1752         53.3500        138.1218        142.6168          0.2967
  512.6736          2.1699         53.3500        139.0355        143.5273          0.3000
  512.8260          2.1688         53.3500        139.2386        143.7285          0.3008
  512.9784          2.1676         53.3500        139.4416        143.9273          0.3015
  513.1308          2.1670         53.3500        139.5432        144.0254          0.3019
  513.2832          2.1647         53.3500        139.9492        144.4271          0.3033
  513.4356          2.1641         53.3500        140.0508        144.5284          0.3037
  513.5880          2.1600         54.2500        140.7614        145.2340          0.3063
  513.7404          2.1594         54.2500        140.8629        145.3327          0.3066
  513.8928          2.1318         54.2500        145.6381        150.1026          0.3239
  514.0452          2.1239         53.0500        147.0000        151.4630          0.3288
  514.1976          2.1239         50.9500        147.0000        151.4579          0.3288
  514.3500          2.1239         50.0500        147.0000        151.4540          0.3288
  514.5024          2.1239         49.4500        147.0000        151.4512          0.3288
  514.6548          2.1239         49.4500        147.0000        151.4474          0.3288
  514.8072          2.1239         49.4500        147.0000        151.4422          0.3288
  514.9596          2.1239         49.4500        147.0000        151.4391          0.3288
  515.1120          2.1239         50.0500        147.0000        151.4351          0.3288
  515.2644          2.1239         51.8500        147.0000        151.4305          0.3288
  515.4168          2.1239         53.6500        147.0000        151.4267          0.3288
  515.5692          2.1239         59.6500        147.0000        151.4228          0.3288
  515.7216          2.1239         66.5500        147.0000        151.4189          0.3288
  515.8740          2.1239         66.9696        147.0000        151.4158          0.3288
  516.0264          2.1239         67.4999        147.0000        151.4088          0.3288
  516.1788          2.1239         68.0302        147.0000        151.4053          0.3288
  516.3312          2.1239         68.5605        147.0000        151.4019          0.3288
  516.4836          2.1239         69.0908        147.0000        151.3980          0.3288
  516.6360          2.1239         69.6211        147.0000        151.3919          0.3288
  516.7884          2.1239         70.1514        147.0000        151.3873          0.3288
  516.9408          2.1239         70.7708        147.0000        151.3848          0.3288
  517.0932          2.1239         71.6500        147.0000        151.3790          0.3288
  517.2456          2.1239         72.2500        147.0000        151.3735          0.3288
  517.3980          2.1239         72.5500        147.0000        151.3689          0.3288
  517.5504          2.1239         73.1500        147.0000        151.3664          0.3288
  517.7028          2.1239         72.5500        147.0000        151.3606          0.3288
  517.8552          2.1239         72.5500        147.0000        151.3557          0.3288
  518.0076          2.1239         73.1500        147.0000        151.3510          0.3288
  518.1600          2.1239         73.1500        147.0000        151.3461          0.3288
  518.3124          2.1239         73.1500        147.0000        151.3409          0.3288
  518.4648          2.1239         74.6500        147.0000        151.3359          0.3288
  518.6172          2.1239         75.5500        147.0000        151.3327          0.3288
  518.7696          2.1239         75.8500        147.0000        151.3261          0.3288
  518.9220          2.1239         75.8500        147.0000        151.3208          0.3288
  519.0744          2.1239         75.8500        147.0000        151.3153          0.3288
  519.2268          2.1239         74.6500        147.0000        151.3112          0.3288
  519.3792          2.1239         71.9500        147.0000        151.3074          0.3288
  519.5316          2.1239         70.1500        147.0000        151.3007          0.3288
  519.6840          2.1239         64.7500        147.0000        151.2957          0.3288
  519.8364          2.1239         64.7500        147.0000        151.2910          0.3288
  519.9888          2.1239         64.7500        147.0000        151.2861          0.3288
  520.1412          2.1239         66.2500        147.0000        151.2790          0.3288
  520.2936          2.1239         66.2500        147.0000        151.2749          0.3288
  520.4460          2.1239         66.2500        147.0000        151.2707          0.3288
  520.5984          2.1239         65.6565        147.0000        151.2631          0.3288
  520.7508          2.1239         63.8500        147.0000        151.2601          0.3288
  520.9032          2.1239         63.8500        147.0000        151.2541          0.3288
  521.0556          2.1239         63.2500        147.0000        151.2489          0.3288
  521.2080          2.1239         62.9500        147.0000        151.2432          0.3288
  521.3604          2.1239         61.1500        147.0000        151.2368          0.3288
  521.5128          2.1239         61.1500        147.0000        151.2317          0.3288
  521.6652          2.1239         61.1500        147.0000        151.2265          0.3288
  521.8176          2.1239         59.3500        147.0000        151.2207          0.3288
  521.9700          2.1239         59.3500        147.0000        151.2159          0.3288
  522.1224          2.1239         59.3500        147.0000        151.2101          0.3288
  522.2748          2.1239         59.3500        147.0000        151.2043          0.3288
  522.4272          2.1239         59.3500        147.0000        151.1980          0.3288
