~VERSION INFORMATION
 VERS.                          2.0   : CWLS LOG ASCII STANDARD - VERSION 2.0
 WRAP.                          NO    : ONE LINE PER DEPTH STEP
#
~Well Information Section
#MNEM     .UNIT     DATA                DESCRIPTION
#-----    -----     --------            --------------
 STRT     .M        30.0000             : START DEPTH
 STOP     .M        1899.9708           : END DEPTH
 STEP     .M        0.0000              : INCREMENT DEPTH
 NULL     .         -999.2500           : NULL VALUE
 COMP     .                              :
 WELL     .         F03-04              : WELL NAME
 EKB      .M        30.0000             : KELLY BUSHING ELEVATION
 EGL      .M        0.0000              : GROUND LEVEL ELEVATION
 EPD      .M        0.0000              : PERMANENT DATUM ELEVATION
 FLD      .                              :
XWELL		.M		623256		: XWELL LOCATION
YWELL		.M		6082586		: YWELL LOCATION
 PROV     .                              :
 SRVC     .                              :
 PROV     .                              :
 DATE     .                              :
 API      .                              :
#
~Curve Information Section
#MNEM     .UNIT               Curve #DESCRIPTION
#-----    -----               ----   --------------
 DEPTH    .M                  : 1     Name = Domain Curve - Type = DEPTH
 RHOB     .g/cc               : 2     Name = Density_math - Type = Density
 GR       .API                : 3     Name = Gamma Ray_math - Type = Gamma Ray
 DT       .us/ft              : 4     Name = P-wave_1 - Type = P-wave
 DT       .us/ft              : 5     Name = P-wave_corr - Type = P-wave
 UNKNOWN  .fraction           : 6     Name = Porosity_math - Type = Porosity
~A (ASCII LOG DATA)
# ...
   30.0174       -999.2500       -999.2500       -999.2500        203.1269       -999.2500
   30.0176       -999.2500       -999.2500       -999.2500        200.5208       -999.2500
   30.0178       -999.2500       -999.2500       -999.2500        197.9806       -999.2500
   30.0181       -999.2500       -999.2500       -999.2500        195.5040       -999.2500
   30.0183       -999.2500       -999.2500       -999.2500        193.0884       -999.2500
   30.0185       -999.2500       -999.2500       -999.2500        190.7318       -999.2500
   30.0187       -999.2500       -999.2500       -999.2500        188.4320       -999.2500
   30.0190       -999.2500       -999.2500       -999.2500        186.1868       -999.2500
   30.0192       -999.2500       -999.2500       -999.2500        183.9946       -999.2500
   30.0194       -999.2500       -999.2500       -999.2500        181.8533       -999.2500
   30.0196       -999.2500       -999.2500       -999.2500        179.7612       -999.2500
   30.0199       -999.2500       -999.2500       -999.2500        177.7167       -999.2500
   30.0201       -999.2500       -999.2500       -999.2500        175.7181       -999.2500
   30.0203       -999.2500       -999.2500       -999.2500        173.7640       -999.2500
   30.0205       -999.2500       -999.2500       -999.2500        171.8527       -999.2500
   30.0208       -999.2500       -999.2500       -999.2500        169.9830       -999.2500
   30.0210       -999.2500       -999.2500       -999.2500        168.1535       -999.2500
   30.0212       -999.2500       -999.2500       -999.2500        166.3630       -999.2500
   30.0214       -999.2500       -999.2500       -999.2500        164.6101       -999.2500
   30.0217       -999.2500       -999.2500       -999.2500        162.8938       -999.2500
   30.0219       -999.2500       -999.2500       -999.2500        161.2128       -999.2500
   30.0221       -999.2500       -999.2500       -999.2500        159.5661       -999.2500
   30.0223       -999.2500       -999.2500       -999.2500        157.9527       -999.2500
   30.0226       -999.2500       -999.2500       -999.2500        156.3715       -999.2500
   30.0228          2.0777       -999.2500        154.9994        154.8217          0.3577
   30.1752          2.0778       -999.2500        154.9956        154.9940          0.3577
   30.3276          2.0778       -999.2500        154.9918        154.9902          0.3576
   30.4800          2.0778       -999.2500        154.9880        154.9864          0.3576
   30.6324          2.0778       -999.2500        154.9842        154.9826          0.3576
   30.7848          2.0778       -999.2500        154.9804        154.9788          0.3576
   30.9372          2.0779       -999.2500        154.9766        154.9750          0.3576
   31.0896          2.0779       -999.2500        154.9728        154.9712          0.3576
   31.2420          2.0779       -999.2500        154.9689        154.9673          0.3576
   31.3944          2.0779       -999.2500        154.9651        154.9635          0.3575
   31.5468          2.0780       -999.2500        154.9613        154.9597          0.3575
   31.6992          2.0780       -999.2500        154.9575        154.9559          0.3575
   31.8516          2.0780       -999.2500        154.9537        154.9521          0.3575
   32.0040          2.0780       -999.2500        154.9499        154.9483          0.3575
   32.1564          2.0780       -999.2500        154.9461        154.9445          0.3575
   32.3088          2.0781       -999.2500        154.9423        154.9407          0.3575
   32.4612          2.0781       -999.2500        154.9385        154.9369          0.3574
   32.6136          2.0781       -999.2500        154.9347        154.9330          0.3574
   32.7660          2.0781       -999.2500        154.9308        154.9292          0.3574
   32.9184          2.0782       -999.2500        154.9270        154.9254          0.3574
   33.0708          2.0782       -999.2500        154.9232        154.9216          0.3574
   33.2232          2.0782       -999.2500        154.9194        154.9178          0.3574
   33.3756          2.0782       -999.2500        154.9156        154.9140          0.3574
   33.5280          2.0782       -999.2500        154.9118        154.9102          0.3573
   33.6804          2.0783       -999.2500        154.9080        154.9064          0.3573
   33.8328          2.0783       -999.2500        154.9042        154.9026          0.3573
   33.9852          2.0783       -999.2500        154.9004        154.8988          0.3573
   34.1376          2.0783       -999.2500        154.8966        154.8949          0.3573
   34.2900          2.0784       -999.2500        154.8927        154.8911          0.3573
   34.4424          2.0784       -999.2500        154.8889        154.8873          0.3573
   34.5948          2.0784       -999.2500        154.8851        154.8835          0.3573
   34.7472          2.0784       -999.2500        154.8813        154.8797          0.3572
   34.8996          2.0784       -999.2500        154.8775        154.8759          0.3572
   35.0520          2.0785       -999.2500        154.8737        154.8721          0.3572
   35.2044          2.0785       -999.2500        154.8699        154.8683          0.3572
   35.3568          2.0785       -999.2500        154.8661        154.8645          0.3572
   35.5092          2.0785       -999.2500        154.8623        154.8607          0.3572
   35.6616          2.0786       -999.2500        154.8585        154.8569          0.3572
   35.8140          2.0786       -999.2500        154.8546        154.8530          0.3571
   35.9664          2.0786       -999.2500        154.8508        154.8492          0.3571
   36.1188          2.0786       -999.2500        154.8470        154.8454          0.3571
   36.2712          2.0786       -999.2500        154.8432        154.8416          0.3571
   36.4236          2.0787       -999.2500        154.8394        154.8378          0.3571
   36.5760          2.0787       -999.2500        154.8356        154.8340          0.3571
   36.7284          2.0787       -999.2500        154.8318        154.8302          0.3571
   36.8808          2.0787       -999.2500        154.8280        154.8264          0.3570
   37.0332          2.0787       -999.2500        154.8242        154.8226          0.3570
   37.1856          2.0788       -999.2500        154.8204        154.8188          0.3570
   37.3380          2.0788       -999.2500        154.8165        154.8149          0.3570
   37.4904          2.0788       -999.2500        154.8127        154.8111          0.3570
   37.6428          2.0788       -999.2500        154.8089        154.8073          0.3570
   37.7952          2.0789       -999.2500        154.8051        154.8035          0.3570
   37.9476          2.0789       -999.2500        154.8013        154.7997          0.3569
   38.1000          2.0789       -999.2500        154.7975        154.7959          0.3569
   38.2524          2.0789       -999.2500        154.7937        154.7921          0.3569
   38.4048          2.0789       -999.2500        154.7899        154.7883          0.3569
   38.5572          2.0790       -999.2500        154.7861        154.7845          0.3569
   38.7096          2.0790       -999.2500        154.7823        154.7806          0.3569
   38.8620          2.0790       -999.2500        154.7784        154.7768          0.3569
   39.0144          2.0790       -999.2500        154.7746        154.7730          0.3569
   39.1668          2.0791       -999.2500        154.7708        154.7692          0.3568
   39.3192          2.0791       -999.2500        154.7670        154.7654          0.3568
   39.4716          2.0791       -999.2500        154.7632        154.7616          0.3568
   39.6240          2.0791       -999.2500        154.7594        154.7578          0.3568
