~VERSION INFORMATION
 VERS.                          2.0   : CWLS LOG ASCII STANDARD - VERSION 2.0
 WRAP.                          NO    : ONE LINE PER DEPTH STEP
#
~Well Information Section
#MNEM     .UNIT     DATA                DESCRIPTION
#-----    -----     --------            --------------
 STRT     .M        30.0000             : START DEPTH
 STOP     .M        1899.9708           : END DEPTH
 STEP     .M        0.0000              : INCREMENT DEPTH
 NULL     .         -999.2500           : NULL VALUE
 COMP     .                              :
 WELL     .         F03-04              : WELL NAME
 EKB      .M        30.0000             : KELLY BUSHING ELEVATION
 EGL      .M        0.0000              : GROUND LEVEL ELEVATION
 EPD      .M        0.0000              : PERMANENT DATUM ELEVATION
 FLD      .                              :
XWELL		.M		623256		: XWELL LOCATION
YWELL		.M		6082586		: YWELL LOCATION
 PROV     .                              :
 SRVC     .                              :
 PROV     .                              :
 DATE     .                              :
 API      .                              :
#
~Curve Information Section
#MNEM     .UNIT               Curve #DESCRIPTION
#-----    -----               ----   --------------
 DEPTH    .M                  : 1     Name = Domain Curve - Type = DEPTH
 RHOB     .g/cc               : 2     Name = Density_math - Type = Density
 GR       .API                : 3     Name = Gamma Ray_math - Type = Gamma Ray
 DT       .us/ft              : 4     Name = P-wave_1 - Type = P-wave
 DT       .us/ft              : 5     Name = P-wave_corr - Type = P-wave
 UNKNOWN  .fraction           : 6     Name = Porosity_math - Type = Porosity
~A (ASCII LOG DATA)
# ...
 1002.1824          2.2266         65.6500        129.2284        129.5263          0.2646
 1002.3348          2.2266         65.6500        129.2284        129.5243          0.2646
 1002.4872          2.2229         66.5500        129.8680        130.1621          0.2669
 1002.6396          2.2202         66.8500        130.3249        130.6172          0.2686
 1002.7920          2.2176         66.8500        130.7817        131.0722          0.2702
 1002.9444          2.2155         66.8500        131.1472        131.4355          0.2716
 1003.0968          2.2144         66.2500        131.3300        131.6168          0.2722
 1003.2492          2.2143         65.9500        131.3487        131.6335          0.2723
 1003.4016          2.2142         64.4500        131.3671        131.6504          0.2724
 1003.5540          2.2141         61.1500        131.3855        131.6668          0.2724
 1003.7064          2.2140         60.5500        131.4039        131.6837          0.2725
 1003.8588          2.2139         59.3500        131.4213        131.6993          0.2726
 1004.0112          2.2134         58.4500        131.5127        131.7892          0.2729
 1004.1636          2.2107         57.8500        131.9695        132.2445          0.2745
 1004.3160          2.2123         57.8500        131.6954        131.9693          0.2735
 1004.4684          2.2118         57.8500        131.7868        132.0589          0.2739
 1004.6208          2.2134         58.4500        131.5127        131.7840          0.2729
 1004.7732          2.2139         61.1500        131.4213        131.6907          0.2726
 1004.9256          2.2123         63.7672        131.6954        131.9639          0.2735
 1005.0780          2.2139         65.6984        131.4213        131.6884          0.2726
 1005.2304          2.2153         67.6296        131.1889        131.4544          0.2717
 1005.3828          2.2170         69.5608        130.8857        131.1506          0.2706
 1005.5352          2.2188         69.5608        130.5824        130.8458          0.2695
 1005.6876          2.2134         69.5608        131.5127        131.7750          0.2729
 1005.8400          2.2092         69.2500        132.2437        132.5052          0.2755
 1005.9924          2.2086         67.1500        132.3350        132.5956          0.2759
 1006.1448          2.2065         66.2500        132.7005        132.9599          0.2772
 1006.2972          2.2034         65.6500        133.2487        133.5075          0.2791
 1006.4496          2.2023         63.5500        133.4315        133.6895          0.2798
 1006.6020          2.2034         62.6500        133.2487        133.5057          0.2791
 1006.7544          2.2060         62.0500        132.7919        133.0482          0.2775
 1006.9068          2.2055         62.0500        132.8833        133.1391          0.2778
 1007.0592          2.1997         62.0500        133.8883        134.1432          0.2815
 1007.2116          2.1997         65.0500        133.8883        134.1425          0.2815
 1007.3640          2.1997         67.3952        133.8883        134.1420          0.2815
 1007.5164          2.1997         67.3952        133.8883        134.1415          0.2815
 1007.6688          2.1997         67.3952        133.8883        134.1413          0.2815
 1007.8212          2.1997         66.5500        133.8883        134.1404          0.2815
 1007.9736          2.1991         64.4500        133.9797        134.2318          0.2818
 1008.1260          2.2002         63.8500        133.7970        134.0487          0.2811
 1008.2784          2.2018         63.8500        133.5228        133.7742          0.2801
 1008.4308          2.2039         62.0500        133.1574        133.4083          0.2788
 1008.5832          2.2049         61.4500        132.9746        133.2253          0.2782
 1008.7356          2.2002         59.3500        133.7970        134.0474          0.2811
 1008.8880          2.2004         59.3500        133.7643        134.0150          0.2810
 1009.0404          2.2006         59.0500        133.7202        133.9707          0.2809
 1009.1928          2.2009         59.0500        133.6761        133.9265          0.2807
 1009.3452          2.2012         59.0500        133.6142        133.8646          0.2805
 1009.4976          2.2071         59.0500        132.6091        132.8595          0.2768
 1009.6500          2.2071         59.0500        132.6091        132.8599          0.2768
 1009.8024          2.2134         59.6500        131.5127        131.7638          0.2729
 1009.9548          2.2192         60.5500        130.5076        130.7583          0.2693
 1010.1072          2.2160         63.2221        131.0558        131.3070          0.2712
 1010.2596          2.2142         65.3042        131.3782        131.6298          0.2724
 1010.4120          2.2112         67.4500        131.8929        132.1448          0.2743
 1010.5644          2.2086         67.4500        132.3350        132.5873          0.2759
 1010.7168          2.2134         67.7500        131.5127        131.7654          0.2729
 1010.8692          2.2150         68.0500        131.2386        131.4916          0.2719
 1011.0216          2.2150         69.2500        131.2386        131.4922          0.2719
 1011.1740          2.2150         69.2500        131.2386        131.4927          0.2719
 1011.3264          2.2197         69.2500        130.4162        130.6713          0.2689
 1011.4788          2.2201         68.3500        130.3517        130.6071          0.2687
 1011.6312          2.2181         63.8500        130.6926        130.9488          0.2699
 1011.7836          2.2140         63.8500        131.4094        131.6662          0.2725
 1011.9360          2.2098         63.8500        132.1263        132.3841          0.2751
 1012.0884          2.2065         66.5500        132.7005        132.9590          0.2772
 1012.2408          2.2007         66.5500        133.7056        133.9649          0.2808
 1012.3932          2.2028         66.5500        133.3401        133.6005          0.2795
 1012.5456          2.1997         66.2500        133.8883        134.1494          0.2815
 1012.6980          2.1997         63.5500        133.8883        134.1507          0.2815
 1012.8504          2.1997         63.5500        133.8883        134.1521          0.2815
 1013.0028          2.2039         63.5500        133.1574        133.4218          0.2788
 1013.1552          2.2107         66.5500        131.9695        132.2351          0.2745
 1013.3076          2.2139         66.5500        131.4213        131.6883          0.2726
 1013.4600          2.2144         66.5500        131.3300        131.5979          0.2722
 1013.6124          2.2150         65.0500        131.2386        131.5079          0.2719
 1013.7648          2.2125         60.5500        131.6749        131.9458          0.2735
 1013.9172          2.2113         60.5500        131.8782        132.1501          0.2742
 1014.0696          2.2139         60.5500        131.4213        131.6950          0.2726
 1014.2220          2.2160         60.5500        131.0558        131.3308          0.2712
 1014.3744          2.2176         61.4500        130.7817        131.0582          0.2702
 1014.5268          2.2208         61.7500        130.2335        130.5120          0.2683
 1014.6792          2.2144         62.3500        131.3300        131.6094          0.2722
 1014.8316          2.2150         63.2500        131.2386        131.5199          0.2719
 1014.9840          2.2102         63.2500        132.0609        132.3439          0.2749
 1015.1364          2.2100         63.8711        132.1060        132.3908          0.2750
 1015.2888          2.2097         64.4143        132.1453        132.4318          0.2752
 1015.4412          2.2095         65.0500        132.1847        132.4732          0.2753
