~VERSION INFORMATION
 VERS.                          2.0   : CWLS LOG ASCII STANDARD - VERSION 2.0
 WRAP.                          NO    : ONE LINE PER DEPTH STEP
#
~Well Information Section
#MNEM     .UNIT     DATA                DESCRIPTION
#-----    -----     --------            --------------
 STRT     .M        30.0000             : START DEPTH
 STOP     .M        1899.9708           : END DEPTH
 STEP     .M        0.0000              : INCREMENT DEPTH
 NULL     .         -999.2500           : NULL VALUE
 COMP     .                              :
 WELL     .         F03-04              : WELL NAME
 EKB      .M        30.0000             : KELLY BUSHING ELEVATION
 EGL      .M        0.0000              : GROUND LEVEL ELEVATION
 EPD      .M        0.0000              : PERMANENT DATUM ELEVATION
 FLD      .                              :
XWELL		.M		623256		: XWELL LOCATION
YWELL		.M		6082586		: YWELL LOCATION
 PROV     .                              :
 SRVC     .                              :
 PROV     .                              :
 DATE     .                              :
 API      .                              :
#
~Curve Information Section
#MNEM     .UNIT               Curve #DESCRIPTION
#-----    -----               ----   --------------
 DEPTH    .M                  : 1     Name = Domain Curve - Type = DEPTH
 RHOB     .g/cc               : 2     Name = Density_math - Type = Density
 GR       .API                : 3     Name = Gamma Ray_math - Type = Gamma Ray
 DT       .us/ft              : 4     Name = P-wave_1 - Type = P-wave
 DT       .us/ft              : 5     Name = P-wave_corr - Type = P-wave
 UNKNOWN  .fraction           : 6     Name = Porosity_math - Type = Porosity
~A (ASCII LOG DATA)
# ...
  640.0800          2.0773         40.4500        155.0761        158.1081          0.3579
  640.2324          2.0890         42.8500        153.0457        156.0761          0.3506
  640.3848          2.0949         42.8500        152.0305        155.0636          0.3469
  640.5372          2.0965         42.8500        151.7549        154.7853          0.3460
  640.6896          2.0984         42.7335        151.4154        154.4463          0.3447
  640.8420          2.1004         41.6403        151.0759        154.1070          0.3435
  640.9944          2.1154         40.5472        148.4772        151.5077          0.3341
  641.1468          2.1148         39.8500        148.5787        151.6090          0.3345
  641.2992          2.1154         38.9500        148.4772        151.5068          0.3341
  641.4516          2.1154         38.6500        148.4772        151.5080          0.3341
  641.6040          2.1148         38.6500        148.5787        151.6075          0.3345
  641.7564          2.1154         38.6500        148.4772        151.5038          0.3341
  641.9088          2.1154         41.0500        148.4772        151.5045          0.3341
  642.0612          2.1154         41.6500        148.4772        151.5061          0.3341
  642.2136          2.1154         41.6500        148.4772        151.5030          0.3341
  642.3660          2.1154         41.6500        148.4772        151.5008          0.3341
  642.5184          2.1154         41.3500        148.4772        151.4998          0.3341
  642.6708          2.1154         39.2500        148.4772        151.4972          0.3341
  642.8232          2.0996         38.3500        151.2183        154.2374          0.3440
  642.9756          2.1072         37.1500        149.8985        152.9153          0.3393
  643.1280          2.1213         36.5500        147.4619        150.4758          0.3305
  643.2804          2.1277         36.5500        146.3452        149.3566          0.3264
  643.4328          2.1271         36.5500        146.4467        149.4555          0.3268
  643.5852          2.1201         36.8500        147.6650        150.6712          0.3312
  643.7376          2.1090         38.0500        149.5939        152.5974          0.3382
  643.8900          2.1090         39.8500        149.5939        152.5942          0.3382
  644.0424          2.1037         41.3500        150.5076        153.5027          0.3415
  644.1948          2.0943         41.6500        152.1320        155.1241          0.3473
  644.3472          2.0861         42.8500        153.5533        156.5396          0.3524
  644.4996          2.0761         42.8500        155.2792        158.2645          0.3587
  644.6520          2.0791         42.8500        154.7716        157.7500          0.3568
  644.8044          2.0925         37.1500        152.4366        155.4107          0.3484
  644.9568          2.0990         35.6500        151.3198        154.2896          0.3444
  645.1092          2.0978         35.3500        151.5228        154.4872          0.3451
  645.2616          2.0785         35.0500        154.8731        157.8313          0.3572
  645.4140          2.0996         34.9151        151.2183        154.1712          0.3440
  645.5664          2.1013         34.9151        150.9259        153.8754          0.3430
  645.7188          2.1031         34.9151        150.6084        153.5506          0.3418
  645.8712          2.1049         35.0500        150.2910        153.2251          0.3407
  646.0236          2.1068         36.5500        149.9735        152.9017          0.3395
  646.1760          2.1086         38.0500        149.6560        152.5783          0.3384
  646.3284          2.1104         38.0500        149.3385        152.2565          0.3372
  646.4808          2.1123         38.0500        149.0210        151.9283          0.3361
  646.6332          2.1141         38.3500        148.7035        151.6060          0.3349
  646.7856          2.1159         38.3500        148.3860        151.2805          0.3338
  646.9380          2.1178         40.4500        148.0685        150.9543          0.3326
  647.0904          2.1196         41.3500        147.7511        150.6288          0.3315
  647.2428          2.1207         43.4500        147.5634        150.4340          0.3308
  647.3952          2.0956         44.3500        151.9129        154.7747          0.3465
  647.5476          2.0777         44.3500        154.9996        157.8524          0.3577
  647.7000          2.0620         44.3500        157.7157        160.5602          0.3675
  647.8524          2.0834         44.3500        154.0165        156.8511          0.3541
  648.0048          2.1025         44.0500        150.7137        153.5420          0.3422
  648.1572          2.1248         43.7500        146.8528        149.6689          0.3283
  648.3096          2.1201         43.1500        147.6633        150.4686          0.3312
  648.4620          2.1145         41.3500        148.6387        151.4372          0.3347
  648.6144          2.1088         40.4500        149.6141        152.4006          0.3382
  648.7668          2.1032         40.4500        150.5895        153.3662          0.3417
  648.9192          2.0976         40.4500        151.5649        154.3300          0.3453
  649.0716          2.0919         40.4500        152.5403        155.2960          0.3488
  649.2240          2.0863         39.2500        153.5157        156.2594          0.3523
  649.3764          2.0785         38.3500        154.8731        157.6054          0.3572
  649.5288          2.0858         38.3500        153.5962        156.3170          0.3526
  649.6812          2.0980         38.3500        151.4973        154.2066          0.3450
  649.8336          2.1101         41.0500        149.3984        152.0973          0.3374
  649.9860          2.1222         43.4500        147.2994        149.9836          0.3299
  650.1384          2.1246         44.4427        146.8803        149.5531          0.3284
  650.2908          2.1172         45.5359        148.1613        150.8230          0.3330
  650.4432          2.1098         46.6291        149.4422        152.0891          0.3376
  650.5956          2.1024         47.7222        150.7232        153.3564          0.3422
  650.7480          2.0950         48.8500        152.0042        154.6248          0.3469
  650.9004          2.0876         49.4500        153.2852        155.8943          0.3515
  651.0528          2.0796         49.7500        154.6700        157.2636          0.3565
  651.2052          2.0779         49.7500        154.9679        157.5469          0.3576
  651.3576          2.0760         49.7500        155.2920        157.8571          0.3587
  651.5100          2.0742         49.4500        155.6161        158.1670          0.3599
  651.6624          2.0723         49.1500        155.9402        158.4766          0.3611
  651.8148          2.0704         49.1500        156.2643        158.7848          0.3622
  651.9672          2.0686         49.1500        156.5884        159.0946          0.3634
  652.1196          2.0673         50.9500        156.8020        159.2935          0.3642
  652.2720          2.0858         51.5500        153.6016        156.0753          0.3526
  652.4244          2.0996         51.5500        151.2146        153.6727          0.3440
  652.5768          2.1134         51.5500        148.8275        151.2713          0.3354
  652.7292          2.1272         51.2500        146.4405        148.8652          0.3268
  652.8816          2.1353         50.6500        145.0254        147.4339          0.3217
  653.0340          2.1349         48.2500        145.1026        147.4931          0.3219
  653.1864          2.1346         46.4500        145.1575        147.5286          0.3221
  653.3388          2.1343         44.6500        145.2123        147.5694          0.3223
