~VERSION INFORMATION
 VERS.                          2.0   : CWLS LOG ASCII STANDARD - VERSION 2.0
 WRAP.                          NO    : ONE LINE PER DEPTH STEP
#
~Well Information Section
#MNEM     .UNIT     DATA                DESCRIPTION
#-----    -----     --------            --------------
 STRT     .M        30.0000             : START DEPTH
 STOP     .M        1899.9708           : END DEPTH
 STEP     .M        0.0000              : INCREMENT DEPTH
 NULL     .         -999.2500           : NULL VALUE
 COMP     .                              :
 WELL     .         F03-04              : WELL NAME
 EKB      .M        30.0000             : KELLY BUSHING ELEVATION
 EGL      .M        0.0000              : GROUND LEVEL ELEVATION
 EPD      .M        0.0000              : PERMANENT DATUM ELEVATION
 FLD      .                              :
XWELL		.M		623256		: XWELL LOCATION
YWELL		.M		6082586		: YWELL LOCATION
 PROV     .                              :
 SRVC     .                              :
 PROV     .                              :
 DATE     .                              :
 API      .                              :
#
~Curve Information Section
#MNEM     .UNIT               Curve #DESCRIPTION
#-----    -----               ----   --------------
 DEPTH    .M                  : 1     Name = Domain Curve - Type = DEPTH
 RHOB     .g/cc               : 2     Name = Density_math - Type = Density
 GR       .API                : 3     Name = Gamma Ray_math - Type = Gamma Ray
 DT       .us/ft              : 4     Name = P-wave_1 - Type = P-wave
 DT       .us/ft              : 5     Name = P-wave_corr - Type = P-wave
 UNKNOWN  .fraction           : 6     Name = Porosity_math - Type = Porosity
~A (ASCII LOG DATA)
# ...
 1122.8832          2.1891         71.0500        135.7157        137.9587          0.2881
 1123.0356          2.1859         71.0500        136.2640        138.5060          0.2900
 1123.1880          2.1807         71.0500        137.1777        139.4184          0.2933
 1123.3405          2.1801         73.4500        137.2690        139.5082          0.2937
 1123.4928          2.1754         74.6500        138.0914        140.3296          0.2966
 1123.6451          2.1676         74.9500        139.4416        141.6788          0.3015
 1123.7976          2.1688         76.1500        139.2386        141.4743          0.3008
 1123.9500          2.1688         76.4500        139.2386        141.4724          0.3008
 1124.1024          2.1711         76.4500        138.8325        141.0657          0.2993
 1124.2548          2.1711         77.6500        138.8325        141.0641          0.2993
 1124.4072          2.1711         78.5500        138.8325        141.0624          0.2993
 1124.5596          2.1688         80.6500        139.2386        141.4676          0.3008
 1124.7120          2.1688         80.9500        139.2386        141.4662          0.3008
 1124.8644          2.1746         81.5361        138.2233        140.4493          0.2971
 1125.0168          2.1746         81.9591        138.2233        140.4483          0.2971
 1125.1692          2.1823         81.9591        136.9035        139.1267          0.2923
 1125.3217          2.1823         81.9591        136.9035        139.1257          0.2923
 1125.4740          2.1828         79.4500        136.8020        139.0230          0.2920
 1125.6263          2.1834         77.6500        136.7005        138.9198          0.2916
 1125.7788          2.1828         77.6500        136.8020        139.0201          0.2920
 1125.9312          2.1776         77.6500        137.7157        139.9318          0.2953
 1126.0836          2.1758         78.2500        138.0203        140.2355          0.2964
 1126.2360          2.1752         78.2500        138.1218        140.3351          0.2967
 1126.3884          2.1735         78.5500        138.4264        140.6387          0.2978
 1126.5408          2.1735         78.8500        138.4264        140.6368          0.2978
 1126.6932          2.1699         80.3500        139.0355        141.2449          0.3000
 1126.8456          2.1664         82.7500        139.6447        141.8534          0.3022
 1126.9980          2.1664         88.4500        139.6447        141.8504          0.3022
 1127.1504          2.1664         88.4500        139.6447        141.8499          0.3022
 1127.3029          2.1629         88.4500        140.2538        142.4573          0.3044
 1127.4552          2.1611         87.2500        140.5584        142.7601          0.3055
 1127.6075          2.1611         86.0500        140.5584        142.7585          0.3055
 1127.7600          2.1611         85.7500        140.5584        142.7574          0.3055
 1127.9124          2.1611         85.4500        140.5584        142.7559          0.3055
 1128.0648          2.1611         85.4500        140.5584        142.7545          0.3055
 1128.2172          2.1588         85.1500        140.9645        143.1585          0.3070
 1128.3696          2.1582         85.1500        141.0660        143.2591          0.3074
 1128.5220          2.1723         85.1500        138.6294        140.8211          0.2986
 1128.6744          2.1723         83.6500        138.6294        140.8187          0.2986
 1128.8268          2.1746         83.6500        138.2233        140.4121          0.2971
 1128.9792          2.1823         83.6500        136.9035        139.0904          0.2923
 1129.1316          2.1823         86.3500        136.9035        139.0889          0.2923
 1129.2841          2.1823         86.3500        136.9035        139.0869          0.2923
 1129.4364          2.1793         86.3500        137.4112        139.5934          0.2942
 1129.5887          2.1787         84.2834        137.5127        139.6930          0.2945
 1129.7412          2.1770         84.2834        137.8173        139.9964          0.2956
 1129.8936          2.1758         84.2834        138.0203        140.1974          0.2964
 1130.0460          2.1699         84.3559        139.0355        141.2114          0.3000
 1130.1984          2.1694         84.4284        139.1371        141.3122          0.3004
 1130.3508          2.1664         84.4284        139.6447        141.8171          0.3022
 1130.5032          2.1664         84.4284        139.6447        141.8159          0.3022
 1130.6556          2.1553         84.2500        141.5736        143.7433          0.3092
 1130.8080          2.1553         83.6500        141.5736        143.7411          0.3092
 1130.9604          2.1529         83.6500        141.9797        144.1461          0.3107
 1131.1128          2.1541         83.6500        141.7767        143.9409          0.3099
 1131.2653          2.1541         83.6500        141.7767        143.9398          0.3099
 1131.4176          2.1541         83.6500        141.7767        143.9378          0.3099
 1131.5699          2.1541         81.5500        141.7767        143.9373          0.3099
 1131.7224          2.1541         80.6500        141.7767        143.9343          0.3099
 1131.8748          2.1565         77.9500        141.3706        143.5275          0.3085
 1132.0272          2.1565         74.6500        141.3706        143.5256          0.3085
 1132.1796          2.1565         71.3500        141.3706        143.5238          0.3085
 1132.3320          2.1565         70.7500        141.3706        143.5222          0.3085
 1132.4844          2.1565         69.8394        141.3706        143.5205          0.3085
 1132.6368          2.1541         69.8394        141.7767        143.9253          0.3099
 1132.7892          2.1541         69.6278        141.7767        143.9234          0.3099
 1132.9417          2.1541         69.6278        141.7767        143.9220          0.3099
 1133.0940          2.1529         65.6500        141.9797        144.1229          0.3107
 1133.2465          2.1529         63.5500        141.9797        144.1217          0.3107
 1133.3988          2.1529         61.7500        141.9797        144.1196          0.3107
 1133.5511          2.1529         61.7500        141.9797        144.1185          0.3107
 1133.7036          2.1529         61.7500        141.9797        144.1168          0.3107
 1133.8560          2.1529         63.2500        141.9797        144.1150          0.3107
 1134.0084          2.1529         65.3500        141.9797        144.1135          0.3107
 1134.1608          2.1523         66.5500        142.0812        144.2128          0.3110
 1134.3132          2.1518         69.1028        142.1827        144.3131          0.3114
 1134.4656          2.1518         70.1500        142.1827        144.3110          0.3114
 1134.6180          2.1523         71.3500        142.0812        144.2084          0.3110
 1134.7704          2.1529         71.3500        141.9797        144.1048          0.3107
 1134.9229          2.1529         71.3500        141.9797        144.1034          0.3107
 1135.0752          2.1553         70.6531        141.5736        143.6964          0.3092
 1135.2275          2.1611         70.4718        140.5584        142.6784          0.3055
 1135.3800          2.1623         70.4718        140.3553        142.4742          0.3048
 1135.5323          2.1688         70.4718        139.2386        141.3554          0.3008
 1135.6848          2.1688         71.6500        139.2386        141.3541          0.3008
 1135.8372          2.1688         74.0500        139.2386        141.3519          0.3008
 1135.9896          2.1770         74.3500        137.8173        139.9293          0.2956
 1136.1420          2.1770         75.8500        137.8173        139.9276          0.2956
