~VERSION INFORMATION
 VERS.                          2.0   : CWLS LOG ASCII STANDARD - VERSION 2.0
 WRAP.                          NO    : ONE LINE PER DEPTH STEP
#
~Well Information Section
#MNEM     .UNIT     DATA                DESCRIPTION
#-----    -----     --------            --------------
 STRT     .M        30.0270             : START DEPTH
 STOP     .M        2139.5481           : END DEPTH
 STEP     .M        0.0000              : INCREMENT DEPTH
 NULL     .         -999.2500           : NULL VALUE
 COMP     .                              :
 WELL     .         F03-02              : WELL NAME
 EKB      .M        30.0000             : KELLY BUSHING ELEVATION
 EGL      .M        0.0000              : GROUND LEVEL ELEVATION
 EPD      .M        0.0000              : PERMANENT DATUM ELEVATION
 FLD      .                              :
 XWELL	.M	619101			: XWELL LOCATION
 YWELL	.M	6089491			: YWELL LOCATION
 PROV     .                              :
 SRVC     .                              :
 PROV     .                              :
 DATE     .                              :
 API      .                              :
#
~Curve Information Section
#MNEM     .UNIT               Curve #DESCRIPTION
#-----    -----               ----   --------------
 DEPTH    .M                  : 1     Name = Domain Curve - Type = DEPTH
 RHOB     .g/cc               : 2     Name = Density_math 2 - Type = Density
 GR       .API                : 3     Name = GR_balanced - Type = Gamma Ray
 DT       .us/ft              : 4     Name = P-wave_1 - Type = P-wave
 DT       .us/ft              : 5     Name = P-wave_corr - Type = P-wave
 UNKNOWN  .fraction           : 6     Name = Porosity_math - Type = Porosity
~A (ASCII LOG DATA)
   30.0270          2.0489         14.5500        159.9996        160.0251          0.3757
   30.1790          2.0489         13.5100        159.9973        162.9139          0.3757
   30.3320          2.0489         13.8400        159.9950        162.9142          0.3757
   30.4840          2.0489         14.8600        159.9927        162.9156          0.3757
   30.6360          2.0489         16.7800        159.9905        162.9160          0.3757
   30.7890          2.0489         17.4300        159.9882        162.9163          0.3757
   30.9410          2.0489         16.9700        159.9859        162.9180          0.3757
   31.0940          2.0489         14.9800        159.9836        162.9180          0.3757
   31.2460          2.0490         13.8800        159.9813        162.9194          0.3756
   31.3980          2.0490         14.7200        159.9790        162.9198          0.3756
   31.5510          2.0490         14.5800        159.9767        162.9213          0.3756
   31.7030          2.0490         14.6600        159.9745        162.9216          0.3756
   31.8560          2.0490         15.1700        159.9722        162.9227          0.3756
   32.0080          2.0490         15.1700        159.9699        162.9232          0.3756
   32.1600          2.0490         14.5900        159.9676        162.9235          0.3756
   32.3130          2.0491         14.4000        159.9653        162.9253          0.3756
   32.4650          2.0491         15.0100        159.9630        162.9255          0.3756
   32.6180          2.0491         15.6700        159.9607        162.9261          0.3756
   32.7700          2.0491         15.9600        159.9585        162.9274          0.3756
   32.9220          2.0491         15.0300        159.9562        162.9281          0.3756
   33.0750          2.0491         15.0700        159.9539        162.9287          0.3755
   33.2270          2.0491         16.4700        159.9516        162.9295          0.3755
   33.3800          2.0491         13.4300        159.9493        162.9307          0.3755
   33.5320          2.0492         13.5900        159.9470        162.9312          0.3755
   33.6840          2.0492         14.1600        159.9447        162.9317          0.3755
   33.8370          2.0492         12.4300        159.9424        162.9330          0.3755
   33.9890          2.0492         13.3100        159.9402        162.9334          0.3755
   34.1420          2.0492         13.8800        159.9379        162.9339          0.3755
   34.2940          2.0492         14.2500        159.9356        162.9357          0.3755
   34.4460          2.0492         14.6100        159.9333        162.9357          0.3755
   34.5990          2.0493         16.4800        159.9310        162.9364          0.3755
   34.7510          2.0493         17.9000        159.9287        162.9381          0.3755
   34.9040          2.0493         17.8400        159.9264        162.9384          0.3755
   35.0560          2.0493         17.4100        159.9242        162.9389          0.3754
   35.2080          2.0493         16.2500        159.9219        162.9401          0.3754
   35.3610          2.0493         14.4900        159.9196        162.9406          0.3754
   35.5130          2.0493         13.5900        159.9173        162.9413          0.3754
   35.6660          2.0493         13.8500        159.9150        162.9425          0.3754
   35.8180          2.0494         14.5400        159.9127        162.9433          0.3754
   35.9700          2.0494         15.1100        159.9104        162.9440          0.3754
   36.1230          2.0494         15.1100        159.9082        162.9448          0.3754
   36.2750          2.0494         14.3800        159.9059        162.9450          0.3754
   36.4280          2.0494         13.3300        159.9036        162.9469          0.3754
   36.5800          2.0494         13.4800        159.9013        162.9473          0.3754
   36.7320          2.0494         14.3300        159.8990        162.9474          0.3754
   36.8850          2.0495         16.9300        159.8967        162.9489          0.3753
   37.0370          2.0495         16.8500        159.8944        162.9496          0.3753
   37.1900          2.0495         15.8500        159.8922        162.9503          0.3753
   37.3420          2.0495         14.7900        159.8899        162.9512          0.3753
   37.4940          2.0495         13.8900        159.8876        162.9516          0.3753
   37.6470          2.0495         13.4800        159.8853        162.9525          0.3753
   37.7990          2.0495         13.7200        159.8830        162.9537          0.3753
   37.9520          2.0495         11.4800        159.8807        162.9542          0.3753
   38.1040          2.0496         11.5200        159.8784        162.9550          0.3753
   38.2560          2.0496         12.0500        159.8762        162.9563          0.3753
   38.4090          2.0496         12.4600        159.8739        162.9565          0.3753
   38.5610          2.0496         13.2600        159.8716        162.9576          0.3753
   38.7140          2.0496         13.6700        159.8693        162.9579          0.3752
   38.8660          2.0496         13.1100        159.8670        162.9593          0.3752
   39.0180          2.0496         13.5800        159.8647        162.9595          0.3752
   39.1710          2.0496         14.8800        159.8624        162.9609          0.3752
   39.3230          2.0497         15.4200        159.8602        162.9616          0.3752
   39.4760          2.0497         14.0200        159.8579        162.9622          0.3752
   39.6280          2.0497         14.6900        159.8556        162.9631          0.3752
   39.7800          2.0497         15.2200        159.8533        162.9636          0.3752
   39.9330          2.0497         13.5200        159.8510        162.9643          0.3752
   40.0850          2.0497         13.8400        159.8487        162.9654          0.3752
   40.2380          2.0497         13.4600        159.8464        162.9663          0.3752
   40.3900          2.0498         13.5300        159.8441        162.9671          0.3752
   40.5420          2.0498         13.7200        159.8419        162.9681          0.3751
   40.6950          2.0498         13.5200        159.8396        162.9686          0.3751
   40.8470          2.0498         11.9000        159.8373        162.9697          0.3751
   41.0000          2.0498         12.3100        159.8350        162.9704          0.3751
   41.1520          2.0498         13.5200        159.8327        162.9703          0.3751
   41.3040          2.0498         15.7600        159.8304        162.9721          0.3751
   41.4570          2.0498         14.5300        159.8281        162.9724          0.3751
   41.6090          2.0499         14.8200        159.8259        162.9735          0.3751
   41.7620          2.0499         15.1800        159.8236        162.9739          0.3751
   41.9140          2.0499         15.8300        159.8213        162.9752          0.3751
   42.0660          2.0499         16.0000        159.8190        162.9760          0.3751
   42.2190          2.0499         15.4800        159.8167        162.9766          0.3751
   42.3710          2.0499         13.3400        159.8144        162.9773          0.3750
   42.5240          2.0499         13.6200        159.8121        162.9784          0.3750
   42.6760          2.0500         14.2700        159.8099        162.9792          0.3750
   42.8280          2.0500         16.5800        159.8076        162.9799          0.3750
   42.9810          2.0500         17.2100        159.8053        162.9807          0.3750
   43.1330          2.0500         16.3200        159.8030        162.9818          0.3750
   43.2860          2.0500         13.7600        159.8007        162.9823          0.3750
