~VERSION INFORMATION
 VERS.                          2.0   : CWLS LOG ASCII STANDARD - VERSION 2.0
 WRAP.                          NO    : ONE LINE PER DEPTH STEP
#
~Well Information Section
#MNEM     .UNIT     DATA                DESCRIPTION
#-----    -----     --------            --------------
 STRT     .M        30.0270             : START DEPTH
 STOP     .M        2139.5481           : END DEPTH
 STEP     .M        0.0000              : INCREMENT DEPTH
 NULL     .         -999.2500           : NULL VALUE
 COMP     .                              :
 WELL     .         F03-02              : WELL NAME
 EKB      .M        30.0000             : KELLY BUSHING ELEVATION
 EGL      .M        0.0000              : GROUND LEVEL ELEVATION
 EPD      .M        0.0000              : PERMANENT DATUM ELEVATION
 FLD      .                              :
 XWELL	.M	619101			: XWELL LOCATION
 YWELL	.M	6089491			: YWELL LOCATION
 PROV     .                              :
 SRVC     .                              :
 PROV     .                              :
 DATE     .                              :
 API      .                              :
#
~Curve Information Section
#MNEM     .UNIT               Curve #DESCRIPTION
#-----    -----               ----   --------------
 DEPTH    .M                  : 1     Name = Domain Curve - Type = DEPTH
 RHOB     .g/cc               : 2     Name = Density_math 2 - Type = Density
 GR       .API                : 3     Name = GR_balanced - Type = Gamma Ray
 DT       .us/ft              : 4     Name = P-wave_1 - Type = P-wave
 DT       .us/ft              : 5     Name = P-wave_corr - Type = P-wave
 UNKNOWN  .fraction           : 6     Name = Porosity_math - Type = Porosity
~A (ASCII LOG DATA)
# ...
  591.4680          2.0914         35.1800        152.6351        151.0020          0.3491
  591.6210          2.0770         34.2700        155.1191        153.4820          0.3581
  591.7730          2.0875         31.6200        153.3099        151.6695          0.3516
  591.9260          2.0875         30.8300        153.3169        151.6716          0.3516
  592.0780          2.0793         32.8200        154.7301        153.0807          0.3567
  592.2300          2.0901         32.3800        152.8551        151.2017          0.3499
  592.3830          2.1003         35.7600        151.0950        149.4364          0.3436
  592.5350          2.0818         37.9100        154.3041        152.6422          0.3552
  592.6880          2.0835         40.4400        153.9976        152.3318          0.3540
  592.8400          2.0952         38.7400        151.9694        150.3012          0.3467
  592.9920          2.0781         39.7400        154.9427        153.2699          0.3575
  593.1450          2.0868         38.6300        153.4387        151.7640          0.3520
  593.2970          2.0946         37.5300        152.0869        150.4081          0.3472
  593.4500          2.0837         36.0300        153.9733        152.2919          0.3540
  593.6020          2.0866         36.2000        153.4674        151.7827          0.3521
  593.7540          2.0901         30.4300        152.8520        151.1632          0.3499
  593.9070          2.0949         31.7300        152.0201        150.3299          0.3469
  594.0590          2.0912         33.7800        152.6749        150.9800          0.3493
  594.2120          2.0817         36.5000        154.3211        152.6252          0.3552
  594.3640          2.0914         32.7200        152.6292        150.9308          0.3491
  594.5160          2.0812         32.8000        154.4016        152.6991          0.3555
  594.6690          2.0901         33.0100        152.8569        151.1515          0.3499
  594.8210          2.1005         33.1600        151.0666        149.3591          0.3435
  594.9740          2.0858         35.8100        153.5976        151.8880          0.3526
  595.1260          2.0899         38.3100        152.8936        151.1798          0.3501
  595.2780          2.0986         35.9700        151.3881        149.6735          0.3446
  595.4310          2.0891         33.7200        153.0338        151.3166          0.3506
  595.5830          2.1039         34.8300        150.4667        148.7455          0.3413
  595.7360          2.0993         36.3000        151.2659        149.5422          0.3442
  595.8880          2.0910         35.6000        152.7007        150.9745          0.3494
  596.0400          2.0829         35.7700        154.0983        152.3701          0.3544
  596.1930          2.0773         35.7500        155.0711        153.3398          0.3579
  596.3450          2.0812         33.1000        154.4026        152.6698          0.3555
  596.4980          2.0779         31.2500        154.9669        153.2314          0.3575
  596.6500          2.0886         33.4100        153.1132        151.3764          0.3509
  596.8020          2.1012         36.2200        150.9297        149.1910          0.3430
  596.9550          2.1097         37.8600        149.4690        147.7281          0.3377
  597.1070          2.1117         35.6100        149.1209        147.3806          0.3364
  597.2600          2.0886         34.4800        153.1213        151.3784          0.3509
  597.4120          2.0691         37.1300        156.4980        154.7539          0.3631
  597.5640          2.0603         38.5500        158.0254        156.2794          0.3686
  597.7170          2.0687         39.3700        156.5553        154.8042          0.3633
  597.8690          2.0983         36.9500        151.4360        149.6837          0.3448
  598.0220          2.1227         38.6700        147.2140        145.4608          0.3296
  598.1740          2.1375         42.1000        144.6439        142.8883          0.3203
  598.3260          2.1375         43.9800        144.6478        142.8919          0.3203
  598.4790          2.1234         43.1800        147.0969        145.3391          0.3291
  598.6310          2.1127         39.2000        148.9505        147.1932          0.3358
  598.7840          2.1001         38.6100        151.1187        149.3566          0.3437
  598.9360          2.1056         39.6000        150.1671        148.4039          0.3402
  599.0880          2.1141         38.2200        148.7069        146.9435          0.3350
  599.2410          2.1204         36.1700        147.6158        145.8515          0.3310
  599.3930          2.1275         37.0500        146.3885        144.6229          0.3266
  599.5460          2.1242         39.5800        146.9627        145.1973          0.3287
  599.6980          2.1206         47.1000        147.5724        145.8047          0.3309
  599.8500          2.1550         52.8200        141.6298        139.8625          0.3094
  600.0030          2.1758         52.1600        138.0200        136.2515          0.2964
  600.1550          2.1886         48.0800        135.8060        134.0374          0.2884
  600.3080          2.1865         44.7400        136.1702        134.3990          0.2897
  600.4600          2.1513         43.1800        142.2591        140.4863          0.3117
  600.6120          2.1256         36.1100        146.7114        144.9386          0.3277
  600.7650          2.1027         36.6500        150.6729        148.8967          0.3420
  600.9170          2.0836         37.9100        153.9873        152.2111          0.3540
  601.0700          2.0856         38.3000        153.6354        151.8576          0.3527
  601.2220          2.0888         37.0500        153.0905        151.3123          0.3508
  601.3740          2.1027         38.0900        150.6711        148.8914          0.3420
  601.5270          2.1094         40.2100        149.5150        147.7360          0.3379
  601.6790          2.1064         36.4400        150.0338        148.2530          0.3397
  601.8320          2.1001         37.7900        151.1218        149.3406          0.3437
  601.9840          2.0999         38.6800        151.1595        149.3788          0.3438
  602.1360          2.1001         37.1900        151.1257        149.3465          0.3437
  602.2890          2.1004         35.1400        151.0716        149.2929          0.3435
  602.4410          2.1007         34.0700        151.0165        149.2365          0.3433
  602.5940          2.1022         35.7800        150.7583        148.9764          0.3424
  602.7460          2.1057         38.2900        150.1501        148.3673          0.3402
  602.8980          2.1083         38.8700        149.7007        147.9174          0.3385
  603.0510          2.1097         39.8700        149.4568        147.6749          0.3377
  603.2030          2.1057         36.1000        150.1657        148.3833          0.3402
  603.3560          2.1001         36.2800        151.1265        149.3450          0.3437
  603.5080          2.1028         38.6700        150.6610        148.8791          0.3420
  603.6600          2.1159         41.3700        148.3942        146.6114          0.3338
  603.8130          2.1370         43.7800        144.7323        142.9502          0.3206
  603.9650          2.1402         44.5000        144.1879        142.4046          0.3186
  604.1180          2.1393         42.1000        144.3477        142.5650          0.3192
  604.2700          2.1406         37.2000        144.1175        142.3344          0.3184
  604.4220          2.1215         38.2400        147.4151        145.6322          0.3303
  604.5750          2.1394         37.4600        144.3215        142.5395          0.3191
  604.7270          2.1394         34.3500        144.3245        142.5402          0.3191
