~VERSION INFORMATION
 VERS.                          2.0   : CWLS LOG ASCII STANDARD - VERSION 2.0
 WRAP.                          NO    : ONE LINE PER DEPTH STEP
#
~Well Information Section
#MNEM     .UNIT     DATA                DESCRIPTION
#-----    -----     --------            --------------
 STRT     .M        30.0270             : START DEPTH
 STOP     .M        2139.5481           : END DEPTH
 STEP     .M        0.0000              : INCREMENT DEPTH
 NULL     .         -999.2500           : NULL VALUE
 COMP     .                              :
 WELL     .         F03-02              : WELL NAME
 EKB      .M        30.0000             : KELLY BUSHING ELEVATION
 EGL      .M        0.0000              : GROUND LEVEL ELEVATION
 EPD      .M        0.0000              : PERMANENT DATUM ELEVATION
 FLD      .                              :
 XWELL	.M	619101			: XWELL LOCATION
 YWELL	.M	6089491			: YWELL LOCATION
 PROV     .                              :
 SRVC     .                              :
 PROV     .                              :
 DATE     .                              :
 API      .                              :
#
~Curve Information Section
#MNEM     .UNIT               Curve #DESCRIPTION
#-----    -----               ----   --------------
 DEPTH    .M                  : 1     Name = Domain Curve - Type = DEPTH
 RHOB     .g/cc               : 2     Name = Density_math 2 - Type = Density
 GR       .API                : 3     Name = GR_balanced - Type = Gamma Ray
 DT       .us/ft              : 4     Name = P-wave_1 - Type = P-wave
 DT       .us/ft              : 5     Name = P-wave_corr - Type = P-wave
 UNKNOWN  .fraction           : 6     Name = Porosity_math - Type = Porosity
~A (ASCII LOG DATA)
# ...
 1422.9630          2.0997         57.8300        151.2025        151.2018          0.3440
 1423.1150          2.1008         59.0200        150.9977        150.9974          0.3432
 1423.2679          2.0916         57.8900        152.5972        152.5968          0.3490
 1423.4200          2.1013         58.9000        150.9167        150.9161          0.3429
 1423.5720          2.0994         54.7000        151.2494        151.2486          0.3441
 1423.7250          2.0936         56.7900        152.2522        152.2508          0.3477
 1423.8770          2.0882         57.6800        153.1893        153.1878          0.3511
 1424.0300          2.0809         58.8000        154.4581        154.4572          0.3557
 1424.1820          2.0814         53.9700        154.3593        154.3586          0.3554
 1424.3340          2.0842         56.1100        153.8823        153.8816          0.3536
 1424.4871          2.0885         60.0600        153.1361        153.1356          0.3509
 1424.6390          2.0873         61.3700        153.3393        153.3387          0.3517
 1424.7920          2.0784         59.4400        154.8911        154.8910          0.3573
 1424.9440          2.0784         60.5200        154.8906        154.8905          0.3573
 1425.0959          2.0777         55.6200        155.0142        155.0139          0.3577
 1425.2490          2.0947         51.1900        152.0619        152.0614          0.3471
 1425.4010          2.0915         51.4700        152.6099        152.6098          0.3490
 1425.5540          2.0986         52.1200        151.3850        151.3849          0.3446
 1425.7061          2.1099         55.1100        149.4224        149.4223          0.3375
 1425.8580          2.1091         58.2800        149.5777        149.5777          0.3381
 1426.0110          2.1206         58.0900        147.5835        147.5836          0.3309
 1426.1630          2.1201         56.3700        147.6609        147.6609          0.3312
 1426.3160          2.1187         52.7200        147.9111        147.9115          0.3321
 1426.4680          2.1047         57.0600        150.3257        150.3264          0.3408
 1426.6200          2.0882         55.2500        153.1948        153.1952          0.3512
 1426.7729          2.0891         51.6900        153.0372        153.0366          0.3506
 1426.9250          2.1161         52.1600        148.3517        148.3503          0.3337
 1427.0780          2.1347         55.0700        145.1422        145.1406          0.3221
 1427.2300          2.1434         58.0600        143.6343        143.6325          0.3166
 1427.3820          2.1148         59.8000        148.5744        148.5724          0.3345
 1427.5350          2.1168         61.1100        148.2445        148.2425          0.3333
 1427.6870          2.1225         56.3700        147.2545        147.2522          0.3297
 1427.8400          2.0859         58.4200        153.5919        153.5893          0.3526
 1427.9919          2.0940         56.1300        152.1773        152.1751          0.3475
 1428.1440          2.1098         55.8900        149.4459        149.4439          0.3376
 1428.2970          2.1075         58.1000        149.8496        149.8475          0.3391
 1428.4490          2.1023         61.9300        150.7540        150.7516          0.3423
 1428.6021          2.0985         61.0800        151.3981        151.3962          0.3447
 1428.7540          2.0961         59.6400        151.8253        151.8245          0.3462
 1428.9060          2.0971         55.4000        151.6490        151.6489          0.3456
 1429.0590          2.0979         56.0600        151.5089        151.5095          0.3451
 1429.2111          2.0977         58.6100        151.5395        151.5405          0.3452
 1429.3640          2.0995         58.1900        151.2237        151.2250          0.3440
 1429.5160          2.1007         52.1000        151.0181        151.0195          0.3433
 1429.6680          2.1007         48.1300        151.0168        151.0176          0.3433
 1429.8210          2.1007         49.4400        151.0156        151.0153          0.3433
 1429.9730          2.1051         52.4300        150.2613        150.2601          0.3406
 1430.1260          2.1205         50.4000        147.5923        147.5921          0.3309
 1430.2780          2.1310         51.8800        145.7761        145.7774          0.3244
 1430.4301          2.1355         46.8800        145.0009        145.0032          0.3216
 1430.5830          2.1378         45.0700        144.5918        144.5945          0.3201
 1430.7350          2.1298         43.0900        145.9865        145.9886          0.3251
 1430.8879          2.1273         43.2700        146.4244        146.4258          0.3267
 1431.0400          2.1515         46.9200        142.2339        142.2356          0.3116
 1431.1920          2.1660         45.7600        139.7226        139.7252          0.3025
 1431.3450          2.1796         42.3000        137.3604        137.3640          0.2940
 1431.4969          2.1850         45.4000        136.4249        136.4293          0.2906
 1431.6500          2.1694         49.7500        139.1214        139.1248          0.3003
 1431.8020          2.1697         51.3700        139.0804        139.0823          0.3002
 1431.9540          2.1714         47.8300        138.7755        138.7768          0.2991
 1432.1071          2.1775         48.3900        137.7209        137.7198          0.2953
 1432.2590          2.1831         49.9700        136.7623        136.7600          0.2918
 1432.4120          2.1725         52.4400        138.5968        138.5959          0.2985
 1432.5640          2.1492         52.0100        142.6274        142.6271          0.3130
 1432.7159          2.1347         56.4800        145.1365        145.1373          0.3221
 1432.8690          2.1211         58.1000        147.4883        147.4900          0.3306
 1433.0210          2.1150         55.4100        148.5537        148.5535          0.3344
 1433.1740          2.1131         56.8300        148.8821        148.8784          0.3356
 1433.3260          2.1039         57.4300        150.4646        150.4604          0.3413
 1433.4780          2.0966         56.4100        151.7344        151.7313          0.3459
 1433.6310          2.1023         57.8900        150.7437        150.7399          0.3423
 1433.7830          2.1006         55.8100        151.0383        151.0353          0.3434
 1433.9360          2.0934         58.0000        152.2944        152.2940          0.3479
 1434.0880          2.1026         54.9600        150.6923        150.6924          0.3421
 1434.2400          2.0998         53.1000        151.1781        151.1778          0.3439
 1434.3929          2.0980         53.6300        151.4906        151.4899          0.3450
 1434.5450          2.0967         51.4900        151.7245        151.7237          0.3458
 1434.6980          2.0871         53.5700        153.3702        153.3694          0.3518
 1434.8500          2.0812         51.6400        154.4045        154.4041          0.3555
 1435.0020          2.0895         54.7400        152.9583        152.9578          0.3503
 1435.1550          2.0780         52.9500        154.9499        154.9494          0.3575
 1435.3070          2.0817         54.4500        154.3216        154.3211          0.3552
 1435.4600          2.0884         54.3300        153.1589        153.1589          0.3510
 1435.6121          2.0817         52.1200        154.3185        154.3192          0.3552
 1435.7640          2.0946         53.3600        152.0736        152.0744          0.3471
 1435.9170          2.0900         51.3300        152.8723        152.8725          0.3500
 1436.0690          2.0995         52.6200        151.2390        151.2389          0.3441
 1436.2220          2.1032         50.2900        150.5942        150.5937          0.3418
