~VERSION INFORMATION
 VERS.                          2.0   : CWLS LOG ASCII STANDARD - VERSION 2.0
 WRAP.                          NO    : ONE LINE PER DEPTH STEP
#
~Well Information Section
#MNEM     .UNIT     DATA                DESCRIPTION
#-----    -----     --------            --------------
 STRT     .M        30.0000             : START DEPTH
 STOP     .M        1899.9708           : END DEPTH
 STEP     .M        0.0000              : INCREMENT DEPTH
 NULL     .         -999.2500           : NULL VALUE
 COMP     .                              :
 WELL     .         F03-04              : WELL NAME
 EKB      .M        30.0000             : KELLY BUSHING ELEVATION
 EGL      .M        0.0000              : GROUND LEVEL ELEVATION
 EPD      .M        0.0000              : PERMANENT DATUM ELEVATION
 FLD      .                              :
XWELL		.M		623256		: XWELL LOCATION
YWELL		.M		6082586		: YWELL LOCATION
 PROV     .                              :
 SRVC     .                              :
 PROV     .                              :
 DATE     .                              :
 API      .                              :
#
~Curve Information Section
#MNEM     .UNIT               Curve #DESCRIPTION
#-----    -----               ----   --------------
 DEPTH    .M                  : 1     Name = Domain Curve - Type = DEPTH
 RHOB     .g/cc               : 2     Name = Density_math - Type = Density
 GR       .API                : 3     Name = Gamma Ray_math - Type = Gamma Ray
 DT       .us/ft              : 4     Name = P-wave_1 - Type = P-wave
 DT       .us/ft              : 5     Name = P-wave_corr - Type = P-wave
 UNKNOWN  .fraction           : 6     Name = Porosity_math - Type = Porosity
~A (ASCII LOG DATA)
# ...
 1847.0880          2.1764         27.5500        137.9086        137.9073          0.2960
 1847.2404          2.1759         26.6500        138.0000        137.9986          0.2963
 1847.3928          2.1759         26.6500        138.0000        137.9986          0.2963
 1847.5452          2.1733         26.6500        138.4568        138.4555          0.2979
 1847.6976          2.1726         30.2500        138.5782        138.5768          0.2984
 1847.8500          2.1949         31.7500        134.7107        134.7093          0.2844
 1848.0024          2.2018         31.7500        133.5228        133.5215          0.2801
 1848.1548          2.2028         31.7500        133.3401        133.3387          0.2795
 1848.3073          2.2102         31.7500        132.0609        132.0596          0.2749
 1848.4596          2.2071         29.9500        132.6091        132.6078          0.2768
 1848.6121          2.2055         29.9500        132.8833        132.8819          0.2778
 1848.7644          2.1949         29.9500        134.7107        134.7093          0.2844
 1848.9167          2.1944         30.2500        134.8020        134.8007          0.2848
 1849.0692          2.1917         30.6617        135.2661        135.2648          0.2864
 1849.2216          2.1896         31.1287        135.6244        135.6230          0.2877
 1849.3740          2.1870         31.5957        136.0883        136.0869          0.2894
 1849.5264          2.1838         32.0627        136.6294        136.6281          0.2914
 1849.6788          2.1854         32.5297        136.3553        136.3540          0.2904
 1849.8312          2.1854         32.9967        136.3553        136.3540          0.2904
 1849.9836          2.1891         33.4637        135.7157        135.7144          0.2881
 1850.1360          2.1918         33.9307        135.2589        135.2575          0.2864
 1850.2885          2.1923         34.3978        135.1675        135.1661          0.2861
 1850.4408          2.2023         34.8648        133.4315        133.4301          0.2798
 1850.5931          2.2028         35.3318        133.3401        133.3387          0.2795
 1850.7456          2.2018         35.7988        133.5228        133.5215          0.2801
 1850.8979          2.1940         36.2658        134.8707        134.8694          0.2850
 1851.0504          2.1881         36.7328        135.8985        135.8971          0.2887
 1851.2028          2.1838         37.1998        136.6294        136.6281          0.2914
 1851.3552          2.1833         37.6668        136.7208        136.7194          0.2917
 1851.5076          2.1775         38.1338        137.7259        137.7245          0.2953
 1851.6600          2.1770         38.6008        137.8173        137.8159          0.2956
 1851.8124          2.1712         39.0678        138.8223        138.8210          0.2993
 1851.9648          2.1685         39.5348        139.2792        139.2778          0.3009
 1852.1172          2.1685         39.5348        139.2792        139.2778          0.3009
 1852.2697          2.1654         39.5348        139.8274        139.8260          0.3029
 1852.4220          2.1643         38.9500        140.0101        140.0088          0.3036
 1852.5743          2.1648         38.6500        139.9188        139.9174          0.3032
 1852.7268          2.1796         38.6500        137.3604        137.3591          0.2940
 1852.8792          2.1801         38.6500        137.2690        137.2677          0.2937
 1853.0316          2.1854         39.2500        136.3553        136.3540          0.2904
 1853.1840          2.1854         39.2500        136.3553        136.3540          0.2904
 1853.3364          2.1849         39.2500        136.4467        136.4453          0.2907
 1853.4888          2.1838         38.6500        136.6294        136.6281          0.2914
 1853.6412          2.1823         36.8500        136.9035        136.9022          0.2923
 1853.7936          2.1775         36.2500        137.7259        137.7245          0.2953
 1853.9460          2.1770         35.6500        137.8173        137.8159          0.2956
 1854.0984          2.1764         34.4500        137.9086        137.9073          0.2960
 1854.2509          2.1759         33.5500        138.0000        137.9986          0.2963
 1854.4032          2.1728         32.6710        138.5482        138.5468          0.2983
 1854.5555          2.1706         32.6710        138.9137        138.9123          0.2996
 1854.7080          2.1696         32.6500        139.0965        139.0951          0.3003
 1854.8604          2.1664         32.6500        139.6447        139.6433          0.3022
 1855.0128          2.1696         32.6710        139.0965        139.0951          0.3003
 1855.1652          2.1712         32.9500        138.8223        138.8210          0.2993
 1855.3176          2.1754         32.9500        138.0914        138.0900          0.2966
 1855.4700          2.1759         33.5500        138.0000        137.9986          0.2963
 1855.6224          2.1801         35.0500        137.2690        137.2677          0.2937
 1855.7748          2.1764         38.3500        137.9086        137.9073          0.2960
 1855.9272          2.1754         39.2500        138.0914        138.0900          0.2966
 1856.0796          2.1743         39.2500        138.2741        138.2727          0.2973
 1856.2321          2.1764         39.2500        137.9086        137.9073          0.2960
 1856.3844          2.1764         38.3500        137.9086        137.9073          0.2960
 1856.5367          2.1764         35.3500        137.9086        137.9073          0.2960
 1856.6892          2.1796         33.8500        137.3604        137.3591          0.2940
 1856.8416          2.1869         32.9500        136.0914        136.0900          0.2894
 1856.9940          2.1869         32.6500        136.0914        136.0900          0.2894
 1857.1464          2.1869         31.7500        136.0914        136.0900          0.2894
 1857.2988          2.1869         28.7500        136.0914        136.0900          0.2894
 1857.4512          2.1869         27.4532        136.0914        136.0900          0.2894
 1857.6036          2.1869         26.0500        136.0914        136.0900          0.2894
 1857.7560          2.1869         23.0500        136.0914        136.0900          0.2894
 1857.9084          2.1869         17.6500        136.0914        136.0900          0.2894
 1858.0608          2.1881         16.7500        135.8883        135.8869          0.2887
 1858.2133          2.1881         16.7500        135.8883        135.8869          0.2887
 1858.3656          2.1881         16.4500        135.8883        135.8869          0.2887
 1858.5179          2.1881         16.4500        135.8883        135.8869          0.2887
 1858.6704          2.1881         15.5500        135.8883        135.8869          0.2887
 1858.8228          2.1881         15.5500        135.8883        135.8869          0.2887
 1858.9752          2.1881         15.5500        135.8883        135.8869          0.2887
 1859.1276          2.1881         15.5500        135.8883        135.8869          0.2887
 1859.2800          2.1881         15.5500        135.8883        135.8869          0.2887
 1859.4324          2.1881         14.9500        135.8883        135.8869          0.2887
 1859.5848       -999.2500         14.0500       -999.2500       -999.2500       -999.2500
 1859.7372       -999.2500         13.7500       -999.2500       -999.2500       -999.2500
 1859.8896       -999.2500         13.1114       -999.2500       -999.2500       -999.2500
 1860.0420       -999.2500         12.5500       -999.2500       -999.2500       -999.2500
 1860.1945       -999.2500         12.5500       -999.2500       -999.2500       -999.2500
 1860.3468       -999.2500         12.5500       -999.2500       -999.2500       -999.2500
