~VERSION INFORMATION
 VERS.                          2.0   : CWLS LOG ASCII STANDARD - VERSION 2.0
 WRAP.                          NO    : ONE LINE PER DEPTH STEP
#
~Well Information Section
#MNEM     .UNIT     DATA                DESCRIPTION
#-----    -----     --------            --------------
 STRT     .M        30.0000             : START DEPTH
 STOP     .M        1899.9708           : END DEPTH
 STEP     .M        0.0000              : INCREMENT DEPTH
 NULL     .         -999.2500           : NULL VALUE
 COMP     .                              :
 WELL     .         F03-04              : WELL NAME
 EKB      .M        30.0000             : KELLY BUSHING ELEVATION
 EGL      .M        0.0000              : GROUND LEVEL ELEVATION
 EPD      .M        0.0000              : PERMANENT DATUM ELEVATION
 FLD      .                              :
XWELL		.M		623256		: XWELL LOCATION
YWELL		.M		6082586		: YWELL LOCATION
 PROV     .                              :
 SRVC     .                              :
 PROV     .                              :
 DATE     .                              :
 API      .                              :
#
~Curve Information Section
#MNEM     .UNIT               Curve #DESCRIPTION
#-----    -----               ----   --------------
 DEPTH    .M                  : 1     Name = Domain Curve - Type = DEPTH
 RHOB     .g/cc               : 2     Name = Density_math - Type = Density
 GR       .API                : 3     Name = Gamma Ray_math - Type = Gamma Ray
 DT       .us/ft              : 4     Name = P-wave_1 - Type = P-wave
 DT       .us/ft              : 5     Name = P-wave_corr - Type = P-wave
 UNKNOWN  .fraction           : 6     Name = Porosity_math - Type = Porosity
~A (ASCII LOG DATA)
# ...
 1605.6864          1.9970         32.4690        168.9848        168.9834          0.4081
 1605.8387          1.9970         31.5049        168.9848        168.9834          0.4081
 1605.9912          1.9940         30.5409        169.4924        169.4910          0.4100
 1606.1436          1.9940         29.5768        169.4924        169.4910          0.4100
 1606.2960          1.9934         28.4500        169.5939        169.5925          0.4103
 1606.4484          1.9940         27.8500        169.4924        169.4910          0.4100
 1606.6008          1.9975         27.8500        168.8833        168.8819          0.4078
 1606.7532          1.9993         27.8500        168.5787        168.5773          0.4067
 1606.9056          2.0017         27.8500        168.1726        168.1712          0.4052
 1607.0580          2.0028         28.4500        167.9695        167.9682          0.4045
 1607.2104          2.0046         28.4500        167.6650        167.6636          0.4034
 1607.3628          2.0081         28.4500        167.0558        167.0545          0.4012
 1607.5153          2.0081         27.8500        167.0558        167.0545          0.4012
 1607.6676          2.0058         27.8500        167.4619        167.4606          0.4027
 1607.8199          2.0046         27.8500        167.6650        167.6636          0.4034
 1607.9724          1.9970         28.4500        168.9848        168.9834          0.4081
 1608.1248          1.9682         28.7500        173.9594        173.9581          0.4261
 1608.2772          1.9624         29.9500        174.9746        174.9733          0.4298
 1608.4296          1.9588         30.5500        175.5838        175.5824          0.4320
 1608.5820          1.9325         32.9500        180.1523        180.1509          0.4485
 1608.7344          1.9383         34.4500        179.1371        179.1357          0.4448
 1608.8868          1.9565         35.0500        175.9899        175.9885          0.4334
 1609.0392          1.9717         35.0500        173.3503        173.3489          0.4239
 1609.1917          1.9811         35.0500        171.7259        171.7245          0.4180
 1609.3440          1.9747         34.1500        172.8426        172.8413          0.4221
 1609.4965          1.9600         32.9500        175.3807        175.3794          0.4312
 1609.6488          1.9407         32.9500        178.7310        178.7296          0.4433
 1609.8011          1.9260         32.6500        181.2690        181.2677          0.4525
 1609.9536          1.9290         32.0500        180.7515        180.7501          0.4506
 1610.1060          1.9316         31.7500        180.3078        180.3064          0.4490
 1610.2584          1.9341         31.1500        179.8640        179.8627          0.4474
 1610.4108          1.9367         31.1500        179.4203        179.4190          0.4458
 1610.5632          1.9393         31.1500        178.9766        178.9752          0.4442
 1610.7156          1.9407         32.3049        178.7310        178.7296          0.4433
 1610.8680          1.9407         32.3049        178.7310        178.7296          0.4433
 1611.0204          1.9987         32.3049        168.6802        168.6788          0.4070
 1611.1729          1.9970         32.1566        168.9848        168.9834          0.4081
 1611.3252          1.9952         32.0500        169.2893        169.2880          0.4092
 1611.4775          1.9964         29.3500        169.0863        169.0849          0.4085
 1611.6300          1.9964         28.4500        169.0863        169.0849          0.4085
 1611.7823          1.9975         26.9500        168.8833        168.8819          0.4078
 1611.9348          1.9987         26.0500        168.6802        168.6788          0.4070
 1612.0872          1.9993         25.1500        168.5787        168.5773          0.4067
 1612.2396          1.9999         25.1500        168.4772        168.4758          0.4063
 1612.3920          2.0005         25.1500        168.3756        168.3743          0.4060
 1612.5444          2.0005         25.1500        168.3756        168.3743          0.4060
 1612.6968          2.0011         25.1500        168.2741        168.2727          0.4056
 1612.8492          2.0011         25.1500        168.2741        168.2727          0.4056
 1613.0016          2.0017         26.0500        168.1726        168.1712          0.4052
 1613.1541          2.0022         26.6500        168.0711        168.0697          0.4049
 1613.3064          2.0040         28.4500        167.7665        167.7651          0.4038
 1613.4587          2.0040         29.6500        167.7665        167.7651          0.4038
 1613.6112          2.0040         30.2500        167.7665        167.7651          0.4038
 1613.7635          2.0034         30.2500        167.8680        167.8667          0.4041
 1613.9160          2.0040         30.2500        167.7665        167.7651          0.4038
 1614.0684          2.0046         29.6500        167.6650        167.6636          0.4034
 1614.2208          2.0063         28.1500        167.3604        167.3591          0.4023
 1614.3732          2.0058         28.1500        167.4619        167.4606          0.4027
 1614.5256          2.0046         28.1500        167.6650        167.6636          0.4034
 1614.6780          2.0046         29.3500        167.6650        167.6636          0.4034
 1614.8304          2.0078         30.8500        167.1067        167.1053          0.4014
 1614.9828          2.0109         32.3500        166.5786        166.5773          0.3995
 1615.1353          2.0139         32.6500        166.0506        166.0492          0.3976
 1615.2876          2.0163         32.9500        165.6345        165.6331          0.3961
 1615.4399          2.0175         34.5168        165.4315        165.4301          0.3953
 1615.5924          2.0181         34.5168        165.3300        165.3286          0.3950
 1615.7448          2.0163         34.5168        165.6345        165.6331          0.3961
 1615.8972          2.0151         33.6516        165.8376        165.8362          0.3968
 1616.0496          2.0146         32.7864        165.9391        165.9377          0.3972
 1616.2020          2.0163         32.0500        165.6345        165.6331          0.3961
 1616.3544          2.0192         32.0500        165.1269        165.1255          0.3942
 1616.5068          2.0204         32.0500        164.9239        164.9225          0.3935
 1616.6592          2.0228         33.8500        164.5178        164.5164          0.3920
 1616.8116          2.0251         35.0500        164.1117        164.1103          0.3906
 1616.9640          2.0263         35.9500        163.9086        163.9073          0.3898
 1617.1165          2.0257         36.5500        164.0101        164.0088          0.3902
 1617.2688          2.0263         38.6500        163.9086        163.9073          0.3898
 1617.4211          2.0275         39.8500        163.7056        163.7042          0.3891
 1617.5736          2.0298         41.0500        163.2995        163.2981          0.3876
 1617.7260          2.0304         42.2500        163.1980        163.1966          0.3873
 1617.8784          2.0310         42.8500        163.0965        163.0951          0.3869
 1618.0308          2.0304         43.7500        163.1980        163.1966          0.3873
 1618.1832          2.0263         44.0500        163.9086        163.9073          0.3898
 1618.3356          2.0239         44.6500        164.3147        164.3133          0.3913
 1618.4880          2.0210         44.6500        164.8223        164.8210          0.3931
 1618.6404          2.0198         44.6500        165.0254        165.0240          0.3939
 1618.7928          2.0192         44.0500        165.1269        165.1255          0.3942
 1618.9452          2.0198         43.4500        165.0254        165.0240          0.3939
