~VERSION INFORMATION
 VERS.                          2.0   : CWLS LOG ASCII STANDARD - VERSION 2.0
 WRAP.                          NO    : ONE LINE PER DEPTH STEP
#
~Well Information Section
#MNEM     .UNIT     DATA                DESCRIPTION
#-----    -----     --------            --------------
 STRT     .M        30.0000             : START DEPTH
 STOP     .M        1899.9708           : END DEPTH
 STEP     .M        0.0000              : INCREMENT DEPTH
 NULL     .         -999.2500           : NULL VALUE
 COMP     .                              :
 WELL     .         F03-04              : WELL NAME
 EKB      .M        30.0000             : KELLY BUSHING ELEVATION
 EGL      .M        0.0000              : GROUND LEVEL ELEVATION
 EPD      .M        0.0000              : PERMANENT DATUM ELEVATION
 FLD      .                              :
XWELL		.M		623256		: XWELL LOCATION
YWELL		.M		6082586		: YWELL LOCATION
 PROV     .                              :
 SRVC     .                              :
 PROV     .                              :
 DATE     .                              :
 API      .                              :
#
~Curve Information Section
#MNEM     .UNIT               Curve #DESCRIPTION
#-----    -----               ----   --------------
 DEPTH    .M                  : 1     Name = Domain Curve - Type = DEPTH
 RHOB     .g/cc               : 2     Name = Density_math - Type = Density
 GR       .API                : 3     Name = Gamma Ray_math - Type = Gamma Ray
 DT       .us/ft              : 4     Name = P-wave_1 - Type = P-wave
 DT       .us/ft              : 5     Name = P-wave_corr - Type = P-wave
 UNKNOWN  .fraction           : 6     Name = Porosity_math - Type = Porosity
~A (ASCII LOG DATA)
# ...
 1243.5840          2.1324         87.5500        145.5330        148.2749          0.3235
 1243.7365          2.1195         85.7500        147.7665        150.5074          0.3316
 1243.8888          2.1119         85.7500        149.0863        151.8277          0.3363
 1244.0413          2.0937         85.7500        152.2335        154.9745          0.3477
 1244.1936          2.0937         88.4500        152.2335        154.9736          0.3477
 1244.3459          2.0996         92.3500        151.2183        153.9589          0.3440
 1244.4984          2.1031         96.7422        150.6091        153.3490          0.3418
 1244.6508          2.1078         96.7422        149.7970        152.5366          0.3389
 1244.8032          2.1089         96.7422        149.6037        152.3425          0.3382
 1244.9556          2.1078         95.5654        149.8005        152.5394          0.3389
 1245.1080          2.1066         94.1500        149.9973        152.7358          0.3396
 1245.2604          2.1055         93.2500        150.1941        152.9316          0.3403
 1245.4128          2.1090         90.8500        149.5939        152.3314          0.3382
 1245.5652          2.1131         88.7500        148.8833        151.6197          0.3356
 1245.7177          2.1131         83.3500        148.8833        151.6198          0.3356
 1245.8700          2.1090         80.6500        149.5939        152.3301          0.3382
 1246.0225          2.1043         75.5500        150.4061        153.1407          0.3411
 1246.1748          2.0937         73.7500        152.2335        154.9691          0.3477
 1246.3271          2.0861         73.4500        153.5533        156.2871          0.3524
 1246.4796          2.0849         73.1500        153.7563        156.4899          0.3532
 1246.6320          2.0925         72.8500        152.4366        155.1689          0.3484
 1246.7844          2.0972         72.8500        151.6244        154.3566          0.3455
 1246.9368          2.1084         72.2500        149.6954        152.4266          0.3385
 1247.0892          2.1131         72.2500        148.8833        151.6141          0.3356
 1247.2416          2.1160         70.7500        148.3756        151.1059          0.3338
 1247.3940          2.1201         70.4500        147.6650        150.3943          0.3312
 1247.5464          2.1207         70.4500        147.5634        150.2924          0.3308
 1247.6989          2.1148         70.1500        148.5787        151.3058          0.3345
 1247.8512          2.1113         70.1500        149.1878        151.9152          0.3367
 1248.0035          2.1060         69.8500        150.1015        152.8273          0.3400
 1248.1560          2.1007         69.5500        151.0152        153.7406          0.3433
 1248.3083          2.0966         67.1500        151.7259        154.4505          0.3458
 1248.4608          2.0925         65.6500        152.4366        155.1601          0.3484
 1248.6132          2.0949         65.0500        152.0305        154.7526          0.3469
 1248.7656          2.0972         65.0500        151.6244        154.3461          0.3455
 1248.9180          2.1025         64.4500        150.7107        153.4309          0.3422
 1249.0704          2.1095         64.1500        149.4924        152.2122          0.3378
 1249.2228          2.1113         62.6500        149.1878        151.9069          0.3367
 1249.3752          2.1136         57.5500        148.7817        151.4995          0.3352
 1249.5276          2.1178         56.9500        148.0711        150.7877          0.3327
 1249.6801          2.1242         54.8356        146.9543        149.6698          0.3286
 1249.8324          2.1235         54.8356        147.0672        149.7813          0.3290
 1249.9847          2.1231         54.8356        147.1492        149.8620          0.3293
 1250.1372          2.1226         54.9804        147.2312        149.9434          0.3296
 1250.2896          2.1221         55.1500        147.3132        150.0237          0.3299
 1250.4420          2.1148         56.6500        148.5787        151.2886          0.3345
 1250.5944          2.1101         57.5500        149.3909        152.1003          0.3374
 1250.7468          2.1078         57.5500        149.7970        152.5030          0.3389
 1250.8992          2.1084         57.8500        149.6954        152.4024          0.3385
 1251.0516          2.1095         58.4500        149.4924        152.1973          0.3378
 1251.2040          2.1183         59.3500        147.9695        150.6726          0.3323
 1251.3564          2.1195         59.6500        147.7665        150.4687          0.3316
 1251.5088          2.1195         59.6500        147.7665        150.4668          0.3316
 1251.6613          2.1160         59.6500        148.3756        151.0752          0.3338
 1251.8136          2.1131         59.0500        148.8833        151.5807          0.3356
 1251.9659          2.1037         58.4500        150.5076        153.2043          0.3415
 1252.1184          2.0984         58.4500        151.4213        154.1165          0.3447
 1252.2708          2.0908         58.4500        152.7411        155.4351          0.3495
 1252.4232          2.0855         58.4500        153.6548        156.3462          0.3528
 1252.5756          2.0820         59.3500        154.2640        156.9550          0.3550
 1252.7280          2.0826         62.0500        154.1624        156.8515          0.3546
 1252.8804          2.0878         63.8500        153.2487        155.9359          0.3513
 1253.0328          2.0920         71.3500        152.5381        155.2240          0.3488
 1253.1852          2.0925         71.6500        152.4366        155.1208          0.3484
 1253.3376          2.0920         71.6500        152.5381        155.2207          0.3488
 1253.4900          2.0884         71.6500        153.1472        155.8274          0.3510
 1253.6425          2.0837         69.8500        153.9594        156.6383          0.3539
 1253.7948          2.0802         66.8500        154.5685        157.2450          0.3561
 1253.9471          2.0732         66.8500        155.7868        158.4621          0.3605
 1254.0996          2.0620         66.8500        157.7157        160.3888          0.3675
 1254.2520          2.0538         66.8500        159.1371        161.8080          0.3726
 1254.4044          2.0474         66.8500        160.2538        162.9226          0.3766
 1254.5568          2.0421         67.7500        161.1675        163.8336          0.3799
 1254.7092          2.0380         68.0184        161.8782        164.5425          0.3825
 1254.8616          2.0440         68.0184        160.8429        163.5044          0.3788
 1255.0140          2.0497         68.0184        159.8588        162.5185          0.3752
 1255.1664          2.0550         67.8373        158.9340        161.5908          0.3719
 1255.3188          2.0615         64.1500        157.8173        160.4721          0.3678
 1255.4712          2.0691         60.8500        156.4975        159.1497          0.3631
 1255.6237          2.0837         58.1500        153.9594        156.6092          0.3539
 1255.7760          2.0884         58.1500        153.1472        155.7945          0.3510
 1255.9283          2.0898         58.1500        152.9176        155.5616          0.3502
 1256.0808          2.0912         59.0500        152.6716        155.3132          0.3493
 1256.2332          2.0931         63.5500        152.3350        154.9734          0.3480
 1256.3856          2.0984         68.0500        151.4213        154.0573          0.3447
 1256.5380          2.0990         68.0500        151.3198        153.9531          0.3444
 1256.6904          2.0984         68.0500        151.4213        154.0517          0.3447
 1256.8428          2.0984         67.1500        151.4213        154.0480          0.3447
