~VERSION INFORMATION
 VERS.                          2.0   : CWLS LOG ASCII STANDARD - VERSION 2.0
 WRAP.                          NO    : ONE LINE PER DEPTH STEP
#
~Well Information Section
#MNEM     .UNIT     DATA                DESCRIPTION
#-----    -----     --------            --------------
 STRT     .M        30.0270             : START DEPTH
 STOP     .M        2139.5481           : END DEPTH
 STEP     .M        0.0000              : INCREMENT DEPTH
 NULL     .         -999.2500           : NULL VALUE
 COMP     .                              :
 WELL     .         F03-02              : WELL NAME
 EKB      .M        30.0000             : KELLY BUSHING ELEVATION
 EGL      .M        0.0000              : GROUND LEVEL ELEVATION
 EPD      .M        0.0000              : PERMANENT DATUM ELEVATION
 FLD      .                              :
 XWELL	.M	619101			: XWELL LOCATION
 YWELL	.M	6089491			: YWELL LOCATION
 PROV     .                              :
 SRVC     .                              :
 PROV     .                              :
 DATE     .                              :
 API      .                              :
#
~Curve Information Section
#MNEM     .UNIT               Curve #DESCRIPTION
#-----    -----               ----   --------------
 DEPTH    .M                  : 1     Name = Domain Curve - Type = DEPTH
 RHOB     .g/cc               : 2     Name = Density_math 2 - Type = Density
 GR       .API                : 3     Name = GR_balanced - Type = Gamma Ray
 DT       .us/ft              : 4     Name = P-wave_1 - Type = P-wave
 DT       .us/ft              : 5     Name = P-wave_corr - Type = P-wave
 UNKNOWN  .fraction           : 6     Name = Porosity_math - Type = Porosity
~A (ASCII LOG DATA)
# ...
 2120.3450          2.0155          1.4900         68.2720         68.2712          0.3966
 2120.4980          2.0306          2.9000         68.7136         68.7127          0.3871
 2120.6499          2.0388          2.3800         69.1201         69.1190          0.3820
 2120.8020          2.0317          1.5300         68.4248         68.4236          0.3864
 2120.9551          2.0251          0.9000         69.1501         69.1487          0.3906
 2121.1069          2.0142          3.8200         68.4531         68.4513          0.3974
 2121.2600          2.0094          1.5300         69.0683         69.0659          0.4004
 2121.4121          2.0187          1.7900         68.4737         68.4700          0.3946
 2121.5640          2.0049          3.7900         68.3235         68.3186          0.4032
 2121.7170          2.0093          1.3100         69.2075         69.2025          0.4004
 2121.8689          2.0162          2.0700         68.5519         68.5474          0.3961
 2122.0220          2.0228          2.4400         69.0892         69.0861          0.3920
 2122.1741          2.0314          1.2800         68.7545         68.7523          0.3866
 2122.3259          2.0175          2.1100         68.4443         68.4428          0.3953
 2122.4790          2.0180          0.3100         68.9660         68.9651          0.3950
 2122.6311          2.0067          1.2400         68.6819         68.6812          0.4021
 2122.7839          2.0185          2.2700         68.3750         68.3743          0.3947
 2122.9360          2.0084          2.9600         68.8509         68.8501          0.4010
 2123.0879          2.0345          2.1000         68.9160         68.9153          0.3847
 2123.2410          2.0224          0.6100         68.3394         68.3387          0.3923
 2123.3931          2.0146         -0.4100         69.0255         69.0248          0.3971
 2123.5459          2.0272          1.9500         68.4328         68.4323          0.3893
 2123.6980          2.0019          2.5500         69.0866         69.0860          0.4051
 2123.8501          2.0023          0.7900         68.8951         68.8943          0.4048
 2124.0029          2.0252          1.0200         68.7763         68.7756          0.3905
 2124.1550          2.0303          3.6500         68.2060         68.2052          0.3873
 2124.3081          2.0245          2.3200         68.3242         68.3234          0.3909
 2124.4600          2.0241          2.1900         68.7909         68.7901          0.3912
 2124.6121          2.0389          1.7100         68.4312         68.4305          0.3819
 2124.7649          2.0278          1.0800         68.5004         68.4995          0.3889
 2124.9170          2.0248          0.3700         68.4954         68.4947          0.3907
 2125.0701          2.0195          0.0600         68.4818         68.4812          0.3941
 2125.2219          2.0250          1.4800         68.4536         68.4530          0.3906
 2125.3750          2.0356         -0.0800         68.4079         68.4074          0.3840
 2125.5271          2.0338          1.7000         68.3548         68.3542          0.3851
 2125.6790          2.0344          1.6300         68.2975         68.2969          0.3848
 2125.8320          2.0324          2.2100         68.9771         68.9765          0.3860
 2125.9839          2.0287          2.7000         68.1632         68.1628          0.3883
 2126.1360          2.0189          0.5200         68.9658         68.9653          0.3944
 2126.2891          2.0193         -0.0800         68.2702         68.2697          0.3942
 2126.4409          2.0086          0.0300         69.0110         69.0104          0.4009
 2126.5940          2.0293          2.8200         68.3530         68.3525          0.3879
 2126.7461          2.0277          2.1600         68.4119         68.4116          0.3889
 2126.8979          2.0331          3.0300         68.8163         68.8160          0.3856
 2127.0510          2.0232          2.0800         68.8423         68.8419          0.3917
 2127.2029          2.0037          0.8700         68.2265         68.2261          0.4039
 2127.3560          2.0186          1.8300         68.9917         68.9912          0.3946
 2127.5081          2.0248         -0.5900         68.5308         68.5307          0.3907
 2127.6599          2.0368          0.1800         68.1585         68.1587          0.3833
 2127.8130          2.0242          1.9100         68.2220         68.2224          0.3911
 2127.9651          2.0083          0.5800         68.3975         68.3979          0.4011
 2128.1179          2.0173          3.0600         68.9054         68.9057          0.3954
 2128.2700          2.0116          3.0600         68.0516         68.0520          0.3990
 2128.4221          2.0176          0.9500         68.4936         68.4939          0.3952
 2128.5750          2.0335          1.7900         68.5344         68.5342          0.3853
 2128.7271          2.0247          4.6500         68.5786         68.5779          0.3908
 2128.8799          2.0249          1.8800         68.5834         68.5829          0.3907
 2129.0320          2.0262          1.9900         68.5561         68.5554          0.3899
 2129.1841          2.0231          1.9000         68.4239         68.4234          0.3918
 2129.3369          1.9933          1.4400         69.1881         69.1874          0.4104
 2129.4890          1.9948          0.5600         68.1953         68.1947          0.4095
 2129.6421          1.9970          0.0900         68.9361         68.9354          0.4081
 2129.7939          2.0090          1.4000         68.8190         68.8184          0.4006
 2129.9470          2.0089          2.2400         68.2040         68.2036          0.4007
 2130.0991          2.0259          2.2300         68.2878         68.2873          0.3901
 2130.2510          2.0206          1.4800         68.9860         68.9856          0.3934
 2130.4041          2.0289         -0.2000         68.3294         68.3289          0.3882
 2130.5559          2.0136          1.6500         68.9683         68.9679          0.3977
 2130.7080          2.0160          1.3800         68.2569         68.2564          0.3962
 2130.8611          2.0045          1.0100         68.9208         68.9204          0.4034
 2131.0129          2.0041          0.6500         68.7412         68.7408          0.4037
 2131.1660          2.0157          2.0800         68.2043         68.2038          0.3964
 2131.3181          2.0069          1.6700         68.6069         68.6065          0.4019
 2131.4700          2.0179          1.6900         68.8148         68.8143          0.3951
 2131.6230          2.0086          1.9900         68.7638         68.7632          0.4009
 2131.7749          2.0120          2.4200         68.6946         68.6941          0.3987
 2131.9280          2.0055          4.2300         68.4228         68.4221          0.4028
 2132.0801          2.0057          2.6700         68.1281         68.1275          0.4027
 2132.2319          2.0025          1.9500         68.9244         68.9236          0.4047
 2132.3850          2.0088          1.1000         68.2677         68.2670          0.4007
 2132.5371          2.0041          1.3200         68.9536         68.9528          0.4037
 2132.6899          2.0236          3.4000         68.7919         68.7913          0.3915
 2132.8420          2.0055          2.1900         68.1829         68.1827          0.4028
 2132.9939          2.0159          0.4900         69.1440         69.1439          0.3963
 2133.1470          2.0073         -0.3200         68.3052         68.3051          0.4017
 2133.2991          2.0027          0.8700         69.0854         69.0857          0.4046
 2133.4519          2.0096          1.8700         68.9854         68.9863          0.4003
 2133.6040          2.0036          2.4500         68.2121         68.2133          0.4040
