~VERSION INFORMATION
 VERS.                          2.0   : CWLS LOG ASCII STANDARD - VERSION 2.0
 WRAP.                          NO    : ONE LINE PER DEPTH STEP
#
~Well Information Section
#MNEM     .UNIT     DATA                DESCRIPTION
#-----    -----     --------            --------------
 STRT     .M        30.0000             : START DEPTH
 STOP     .M        1899.9708           : END DEPTH
 STEP     .M        0.0000              : INCREMENT DEPTH
 NULL     .         -999.2500           : NULL VALUE
 COMP     .                              :
 WELL     .         F03-04              : WELL NAME
 EKB      .M        30.0000             : KELLY BUSHING ELEVATION
 EGL      .M        0.0000              : GROUND LEVEL ELEVATION
 EPD      .M        0.0000              : PERMANENT DATUM ELEVATION
 FLD      .                              :
XWELL		.M		623256		: XWELL LOCATION
YWELL		.M		6082586		: YWELL LOCATION
 PROV     .                              :
 SRVC     .                              :
 PROV     .                              :
 DATE     .                              :
 API      .                              :
#
~Curve Information Section
#MNEM     .UNIT               Curve #DESCRIPTION
#-----    -----               ----   --------------
 DEPTH    .M                  : 1     Name = Domain Curve - Type = DEPTH
 RHOB     .g/cc               : 2     Name = Density_math - Type = Density
 GR       .API                : 3     Name = Gamma Ray_math - Type = Gamma Ray
 DT       .us/ft              : 4     Name = P-wave_1 - Type = P-wave
 DT       .us/ft              : 5     Name = P-wave_corr - Type = P-wave
 UNKNOWN  .fraction           : 6     Name = Porosity_math - Type = Porosity
~A (ASCII LOG DATA)
# ...
 1364.2848          2.1482         63.2500        142.8003        142.9084          0.3136
 1364.4373          2.1471         62.6500        142.9949        143.0995          0.3143
 1364.5896          2.1541         61.8451        141.7767        141.8777          0.3099
 1364.7419          2.1547         61.1500        141.6751        141.7725          0.3096
 1364.8944          2.1471         61.1500        142.9949        143.0889          0.3143
 1365.0468          2.1523         61.1500        142.0812        142.1718          0.3110
 1365.1992          2.1570         63.8500        141.2690        141.3563          0.3081
 1365.3516          2.1535         65.0500        141.8782        141.9620          0.3103
 1365.5040          2.1477         65.6500        142.8934        142.9740          0.3140
 1365.6564          2.1523         65.6500        142.0812        142.1588          0.3110
 1365.8088          2.1512         65.6500        142.2843        142.3585          0.3118
 1365.9612          2.1547         63.8500        141.6751        141.7463          0.3096
 1366.1136          2.1570         61.7500        141.2690        141.3371          0.3081
 1366.2660          2.1606         58.4500        140.6599        140.7251          0.3059
 1366.4185          2.1611         58.1500        140.5584        140.6207          0.3055
 1366.5708          2.1600         58.1500        140.7614        140.8210          0.3063
 1366.7231          2.1588         58.1500        140.9645        141.0212          0.3070
 1366.8756          2.1553         59.0500        141.5736        141.6276          0.3092
 1367.0280          2.1518         61.4500        142.1827        142.2340          0.3114
 1367.1804          2.1529         62.3500        141.9797        142.0285          0.3107
 1367.3328          2.1535         62.3500        141.8782        141.9243          0.3103
 1367.4852          2.1541         62.3500        141.7767        141.8202          0.3099
 1367.6376          2.1570         60.8500        141.2690        141.3104          0.3081
 1367.7900          2.1582         60.8500        141.0660        141.1049          0.3074
 1367.9424          2.1588         60.8500        140.9644        141.0008          0.3070
 1368.0948          2.1588         62.3500        140.9645        140.9987          0.3070
 1368.2472          2.1600         63.5500        140.7614        140.7936          0.3063
 1368.3997          2.1601         64.1500        140.7336        140.7637          0.3062
 1368.5520          2.1602         64.1500        140.7130        140.7409          0.3061
 1368.7043          2.1604         64.1500        140.6925        140.7184          0.3060
 1368.8568          2.1605         63.8500        140.6719        140.6961          0.3059
 1369.0092          2.1606         62.9500        140.6514        140.6736          0.3059
 1369.1616          2.1607         61.1500        140.6308        140.6512          0.3058
 1369.3140          2.1608         59.0500        140.6103        140.6289          0.3057
 1369.4664          2.1610         58.8905        140.5897        140.6069          0.3056
 1369.6188          2.1611         58.7500        140.5692        140.5845          0.3056
 1369.7712          2.1610         57.4150        140.5818        140.5958          0.3056
 1369.9236          2.1607         56.3500        140.6311        140.6436          0.3058
 1370.0760          2.1604         56.3500        140.6804        140.6917          0.3060
 1370.2284          2.1602         56.3500        140.7298        140.7396          0.3062
 1370.3809          2.1599         56.3500        140.7791        140.7878          0.3063
 1370.5332          2.1596         56.3500        140.8284        140.8358          0.3065
 1370.6855          2.1593         56.3500        140.8777        140.8840          0.3067
 1370.8380          2.1590         56.3500        140.9271        140.9324          0.3069
 1370.9904          2.1588         58.7500        140.9645        140.9688          0.3070
 1371.1428          2.1621         60.5500        140.3903        140.3939          0.3049
 1371.2952          2.1648         61.1500        139.9279        139.9305          0.3033
 1371.4476          2.1676         62.0500        139.4416        139.4435          0.3015
 1371.6000          2.1682         62.6524        139.3401        139.3414          0.3011
 1371.7524          2.1705         62.6524        138.9340        138.9347          0.2997
 1371.9048          2.1746         62.6524        138.2233        138.2235          0.2971
 1372.0573          2.1749         60.2500        138.1830        138.1825          0.2970
 1372.2096          2.1752         57.8500        138.1218        138.1212          0.2967
 1372.3621          2.1740         56.3500        138.3249        138.3239          0.2975
 1372.5144          2.1723         56.3500        138.6294        138.6283          0.2986
 1372.6667          2.1678         56.1604        139.4047        139.4033          0.3014
 1372.8192          2.1658         56.0500        139.7462        139.7448          0.3026
 1372.9716          2.1612         56.0500        140.5458        140.5445          0.3055
 1373.1240          2.1588         56.0500        140.9645        140.9631          0.3070
 1373.2764          2.1553         55.4500        141.5736        141.5723          0.3092
 1373.4288          2.1547         55.4500        141.6798        141.6784          0.3096
 1373.5812          2.1536         55.4500        141.8570        141.8557          0.3102
 1373.7336          2.1526         56.6500        142.0343        142.0329          0.3109
 1373.8860          2.1516         58.4500        142.2116        142.2102          0.3115
 1374.0385          2.1506         58.4500        142.3888        142.3875          0.3121
 1374.1908          2.1495         58.4500        142.5661        142.5647          0.3128
 1374.3431          2.1485         57.8500        142.7433        142.7420          0.3134
 1374.4956          2.1475         54.8500        142.9206        142.9192          0.3141
 1374.6479          2.1465         53.6931        143.0979        143.0965          0.3147
 1374.8004          2.1455         52.5314        143.2751        143.2738          0.3153
 1374.9528          2.1444         51.3698        143.4524        143.4510          0.3160
 1375.1052          2.1434         50.0500        143.6297        143.6283          0.3166
 1375.2576          2.1424         47.6500        143.8069        143.8055          0.3173
 1375.4100          2.1420         47.6500        143.8736        143.8722          0.3175
 1375.5624          2.1425         47.6500        143.7914        143.7900          0.3172
 1375.7148          2.1430         49.7500        143.7056        143.7042          0.3169
 1375.8672          2.1453         51.5500        143.2995        143.2981          0.3154
 1376.0197          2.1459         52.4500        143.1980        143.1966          0.3151
 1376.1720          2.1430         53.0500        143.7056        143.7042          0.3169
 1376.3243          2.1389         53.6500        144.4162        144.4149          0.3195
 1376.4768          2.1342         53.6500        145.2284        145.2270          0.3224
 1376.6292          2.1307         53.6500        145.8376        145.8362          0.3246
 1376.7816          2.1318         53.0500        145.6345        145.6332          0.3239
 1376.9340          2.1402         52.4500        144.1811        144.1798          0.3186
 1377.0864          2.1453         52.1500        143.2995        143.2981          0.3154
 1377.2388          2.1457         52.1500        143.2255        143.2241          0.3152
 1377.3912          2.1462         51.8500        143.1433        143.1419          0.3149
 1377.5436          2.1471         51.2500        142.9949        142.9935          0.3143
