~VERSION INFORMATION
 VERS.                          2.0   : CWLS LOG ASCII STANDARD - VERSION 2.0
 WRAP.                          NO    : ONE LINE PER DEPTH STEP
#
~Well Information Section
#MNEM     .UNIT     DATA                DESCRIPTION
#-----    -----     --------            --------------
 STRT     .M        30.0270             : START DEPTH
 STOP     .M        2139.5481           : END DEPTH
 STEP     .M        0.0000              : INCREMENT DEPTH
 NULL     .         -999.2500           : NULL VALUE
 COMP     .                              :
 WELL     .         F03-02              : WELL NAME
 EKB      .M        30.0000             : KELLY BUSHING ELEVATION
 EGL      .M        0.0000              : GROUND LEVEL ELEVATION
 EPD      .M        0.0000              : PERMANENT DATUM ELEVATION
 FLD      .                              :
 XWELL	.M	619101			: XWELL LOCATION
 YWELL	.M	6089491			: YWELL LOCATION
 PROV     .                              :
 SRVC     .                              :
 PROV     .                              :
 DATE     .                              :
 API      .                              :
#
~Curve Information Section
#MNEM     .UNIT               Curve #DESCRIPTION
#-----    -----               ----   --------------
 DEPTH    .M                  : 1     Name = Domain Curve - Type = DEPTH
 RHOB     .g/cc               : 2     Name = Density_math 2 - Type = Density
 GR       .API                : 3     Name = GR_balanced - Type = Gamma Ray
 DT       .us/ft              : 4     Name = P-wave_1 - Type = P-wave
 DT       .us/ft              : 5     Name = P-wave_corr - Type = P-wave
 UNKNOWN  .fraction           : 6     Name = Porosity_math - Type = Porosity
~A (ASCII LOG DATA)
# ...
 1704.5980          2.3092          2.6600         74.2696         74.2948          0.2130
 1704.7500          2.2825          4.4700         85.0090         85.0341          0.2297
 1704.9030          2.2771          4.3500         68.5244         68.5485          0.2331
 1705.0551          2.3192          2.9000         64.2635         64.2872          0.2067
 1705.2080          2.3168          1.6900         68.1767         68.1998          0.2082
 1705.3600          2.3130          0.2900         72.0837         72.1057          0.2106
 1705.5120          2.3158          1.7100         82.9035         82.9251          0.2089
 1705.6650          2.3079          3.9700         86.3755         86.3968          0.2138
 1705.8170          2.2691          3.3000         85.9640         85.9848          0.2381
 1705.9700          2.2711          4.3700         88.0801         88.1004          0.2368
 1706.1219          2.2649          6.9200         89.3549         89.3748          0.2407
 1706.2740          2.2250          4.1500         90.1750         90.1952          0.2656
 1706.4270          2.2196          3.0000         91.4354         91.4560          0.2690
 1706.5790          2.2454          3.6900         94.2582         94.2792          0.2529
 1706.7321          2.2785          3.8000         94.0624         94.0835          0.2322
 1706.8840          2.3232          2.5400         87.7718         87.7929          0.2043
 1707.0360          2.2987          3.3600         86.6168         86.6372          0.2196
 1707.1890          2.2606          2.7400         85.6275         85.6475          0.2434
 1707.3409          2.2754          2.3100         86.7645         86.7846          0.2341
 1707.4940          2.2869          4.8100         89.0639         89.0839          0.2269
 1707.6460          2.2793          5.2600         88.3557         88.3756          0.2317
 1707.7980          2.2853          4.5500         83.2430         83.2627          0.2279
 1707.9510          2.3046          3.8200         83.9450         83.9646          0.2159
 1708.1030          2.2869          3.5100         83.1093         83.1294          0.2269
 1708.2560          2.2680          2.2900         83.9898         84.0119          0.2388
 1708.4080          2.2765          1.9700         82.1221         82.1459          0.2334
 1708.5601          2.3175          2.4500         79.0847         79.1079          0.2078
 1708.7130          2.3935          3.8600         72.4719         72.4930          0.1603
 1708.8650          2.4516          3.8400         63.8726         63.8930          0.1240
 1709.0179          2.4624          1.5600         65.5473         65.5675          0.1173
 1709.1700          2.4793          1.0900         73.3644         73.3847          0.1067
 1709.3220          2.4940          0.8300         67.6564         67.6758          0.0975
 1709.4750          2.4616          3.1400         68.4999         68.5190          0.1177
 1709.6270          2.4410          2.9800         63.7601         63.7800          0.1306
 1709.7800          2.3992          2.9700         64.9072         64.9264          0.1568
 1709.9320          2.3532          2.7800         68.3589         68.3776          0.1855
 1710.0840          2.3132          2.8400         73.9170         73.9372          0.2105
 1710.2371          2.3072          4.7300         78.5856         78.6065          0.2143
 1710.3890          2.3015          3.7100         81.8125         81.8330          0.2178
 1710.5420          2.3073          3.7400         80.8190         80.8391          0.2142
 1710.6940          2.3261          3.7300         82.5679         82.5871          0.2024
 1710.8459          2.3424          3.6700         85.1128         85.1358          0.1922
 1710.9990          2.3332          2.2600         83.3228         83.3461          0.1980
 1711.1510          2.3253          2.7200         84.2107         84.2336          0.2029
 1711.3040          2.2972          4.5700         85.0272         85.0500          0.2205
 1711.4561          2.2952          3.6600         85.9499         85.9720          0.2217
 1711.6080          2.2816          2.6200         84.9415         84.9635          0.2303
 1711.7610          2.2847          2.8500         85.6855         85.7078          0.2283
 1711.9130          2.2723          5.8200         88.2177         88.2401          0.2361
 1712.0660          2.2689          5.2700         87.5249         87.5463          0.2382
 1712.2180          2.2915          2.5700         88.7043         88.7243          0.2241
 1712.3700          2.2965          2.9400         87.9724         87.9916          0.2209
 1712.5229          2.2917          4.1400         81.8060         81.8240          0.2239
 1712.6750          2.2724          4.1300         84.0524         84.0709          0.2360
 1712.8280          2.2265          1.4900         87.2415         87.2607          0.2647
 1712.9800          2.2115          1.6800         88.8322         88.8508          0.2741
 1713.1320          2.2215          2.5300         91.5656         91.5841          0.2678
 1713.2850          2.2206          3.4300         94.6373         94.6565          0.2684
 1713.4370          2.2508          1.4900         93.0517         93.0712          0.2495
 1713.5900          2.2841          1.9700         91.4175         91.4370          0.2287
 1713.7419          2.3189          2.5900         91.8985         91.9176          0.2069
 1713.8940          2.3179          4.7900         88.7150         88.7336          0.2076
 1714.0470          2.3131          2.7000         85.2451         85.2631          0.2106
 1714.1990          2.3576          3.7400         83.0791         83.0972          0.1828
 1714.3521          2.3570          3.7400         83.3190         83.3375          0.1831
 1714.5040          2.3671          2.3600         81.2770         81.2963          0.1768
 1714.6560          2.3580          3.7800         82.2932         82.3127          0.1825
 1714.8090          2.3368          2.6700         79.2335         79.2529          0.1957
 1714.9611          2.2602          3.2000         81.0655         81.0840          0.2436
 1715.1140          2.2613          5.1000         84.4170         84.4357          0.2429
 1715.2660          2.2476          4.0200         85.6643         85.6830          0.2515
 1715.4180          2.2572          1.4100         87.1419         87.1603          0.2455
 1715.5710          2.2768          2.7100         86.1742         86.1929          0.2333
 1715.7230          2.2596          2.7100         85.9904         86.0094          0.2440
 1715.8760          2.2597          0.9700         86.7210         86.7400          0.2439
 1716.0280          2.2162          1.4800         86.6461         86.6650          0.2711
 1716.1801          2.2247          3.2700         88.2047         88.2238          0.2658
 1716.3330          2.2072          3.1500         87.5504         87.5693          0.2767
 1716.4850          2.1947          1.2000         87.8359         87.8547          0.2846
 1716.6379          2.1645          1.8500         89.5510         89.5696          0.3034
 1716.7900          2.1326          0.7100         94.4725         94.4909          0.3234
 1716.9420          2.1229          2.2800         98.7050         98.7232          0.3294
 1717.0950          2.1325          1.9900        103.8103        103.8284          0.3234
 1717.2469          2.1671          0.1100        102.5386        102.5569          0.3018
 1717.4000          2.2061          1.6500         96.6323         96.6512          0.2774
 1717.5520          2.2342          1.2900         95.0469         95.0666          0.2599
 1717.7040          2.2561         -1.1200         90.4567         90.4768          0.2462
 1717.8571          2.2625         -0.0500         87.9767         87.9963          0.2422
