~VERSION INFORMATION
 VERS.                          2.0   : CWLS LOG ASCII STANDARD - VERSION 2.0
 WRAP.                          NO    : ONE LINE PER DEPTH STEP
#
~Well Information Section
#MNEM     .UNIT     DATA                DESCRIPTION
#-----    -----     --------            --------------
 STRT     .M        30.0270             : START DEPTH
 STOP     .M        2139.5481           : END DEPTH
 STEP     .M        0.0000              : INCREMENT DEPTH
 NULL     .         -999.2500           : NULL VALUE
 COMP     .                              :
 WELL     .         F03-02              : WELL NAME
 EKB      .M        30.0000             : KELLY BUSHING ELEVATION
 EGL      .M        0.0000              : GROUND LEVEL ELEVATION
 EPD      .M        0.0000              : PERMANENT DATUM ELEVATION
 FLD      .                              :
 XWELL	.M	619101			: XWELL LOCATION
 YWELL	.M	6089491			: YWELL LOCATION
 PROV     .                              :
 SRVC     .                              :
 PROV     .                              :
 DATE     .                              :
 API      .                              :
#
~Curve Information Section
#MNEM     .UNIT               Curve #DESCRIPTION
#-----    -----               ----   --------------
 DEPTH    .M                  : 1     Name = Domain Curve - Type = DEPTH
 RHOB     .g/cc               : 2     Name = Density_math 2 - Type = Density
 GR       .API                : 3     Name = GR_balanced - Type = Gamma Ray
 DT       .us/ft              : 4     Name = P-wave_1 - Type = P-wave
 DT       .us/ft              : 5     Name = P-wave_corr - Type = P-wave
 UNKNOWN  .fraction           : 6     Name = Porosity_math - Type = Porosity
~A (ASCII LOG DATA)
# ...
 1141.3280          2.1653         88.1600        139.8314        136.8783          0.3029
 1141.4800          2.1617         88.6200        140.4584        137.5087          0.3052
 1141.6320          2.1633         83.0600        140.1912        137.2448          0.3042
 1141.7850          2.1784         79.5200        137.5759        134.6304          0.2948
 1141.9370          2.1973         75.9800        134.2902        131.3458          0.2829
 1142.0900          2.2243         79.7400        129.6293        126.6854          0.2661
 1142.2419          2.2395         80.7600        126.9926        124.0513          0.2566
 1142.3940          2.2471         75.3600        125.6741        122.7328          0.2518
 1142.5470          2.2423         76.5900        126.5053        123.5655          0.2548
 1142.6990          2.2187         76.1200        130.5843        127.6467          0.2695
 1142.8521          2.2199         75.9900        130.3800        127.4428          0.2688
 1143.0040          2.2178         77.2300        130.7405        127.8062          0.2701
 1143.1560          2.2142         72.1400        131.3677        128.4372          0.2724
 1143.3090          2.2179         74.8300        130.7394        127.8084          0.2701
 1143.4611          2.2102         70.5600        132.0571        129.1284          0.2748
 1143.6140          2.1887         71.1600        135.7913        132.8655          0.2883
 1143.7660          2.1682         74.4300        139.3370        136.4124          0.3011
 1143.9180          2.1564         80.6400        141.3765        138.4537          0.3085
 1144.0710          2.1518         84.7900        142.1762        139.2554          0.3114
 1144.2230          2.1536         81.1700        141.8722        138.9538          0.3103
 1144.3760          2.1560         73.1400        141.4536        138.5362          0.3088
 1144.5280          2.1636         71.1500        140.1350        137.2214          0.3040
 1144.6801          2.1823         74.0800        136.9019        133.9902          0.2923
 1144.8330          2.2037         77.6400        133.1960        130.2882          0.2790
 1144.9850          2.2078         75.6800        132.4760        129.5724          0.2764
 1145.1379          2.2068         70.7500        132.6481        129.7471          0.2770
 1145.2900          2.1949         74.9700        134.7190        131.8190          0.2845
 1145.4420          2.1733         73.9100        138.4620        135.5631          0.2980
 1145.5950          2.1692         76.2700        139.1583        136.2579          0.3005
 1145.7469          2.1665         81.5400        139.6290        136.7301          0.3022
 1145.9000          2.1599         82.6500        140.7788        137.8808          0.3063
 1146.0520          2.1572         79.5800        141.2386        138.3426          0.3080
 1146.2040          2.1543         82.0400        141.7346        138.8399          0.3098
 1146.3571          2.1512         82.5000        142.2791        139.3853          0.3117
 1146.5090          2.1553         77.7100        141.5723        138.6810          0.3092
 1146.6620          2.1526         74.9500        142.0424        139.1512          0.3109
 1146.8140          2.1536         75.0600        141.8683        138.9807          0.3103
 1146.9659          2.1574         76.0600        141.2100        138.3243          0.3079
 1147.1190          2.1567         73.5300        141.3196        138.4354          0.3083
 1147.2710          2.1551         75.0200        141.6015        138.7199          0.3093
 1147.4240          2.1597         80.2600        140.8009        137.9209          0.3064
 1147.5760          2.1684         81.2200        139.2936        136.4166          0.3010
 1147.7280          2.1578         77.4900        141.1292        138.2520          0.3076
 1147.8810          2.1611         73.2400        140.5640        137.6896          0.3056
 1148.0330          2.1674         74.4300        139.4808        136.6077          0.3016
 1148.1860          2.1577         75.4300        141.1591        138.2870          0.3077
 1148.3380          2.1581         70.2300        141.0801        138.2103          0.3074
 1148.4900          2.1549         68.5900        141.6444        138.7766          0.3095
 1148.6429          2.1551         67.7600        141.5971        138.7309          0.3093
 1148.7950          2.1611         73.1400        140.5611        137.6980          0.3055
 1148.9480          2.1740         74.6100        138.3325        135.4694          0.2975
 1149.1000          2.1901         72.4500        135.5434        132.6830          0.2874
 1149.2520          2.2062         73.1500        132.7621        129.9039          0.2774
 1149.4050          2.2184         71.1700        130.6420        127.7857          0.2697
 1149.5570          2.2230         72.3100        129.8413        126.9871          0.2668
 1149.7100          2.2256         68.8900        129.4012        126.5485          0.2653
 1149.8621          2.2254         65.4700        129.4323        126.5837          0.2654
 1150.0140          2.2219         62.6700        130.0439        127.1953          0.2676
 1150.1670          2.2090         64.6500        132.2712        129.4258          0.2756
 1150.3190          2.2093         68.4200        132.2255        129.3818          0.2755
 1150.4720          2.2109         70.2100        131.9411        129.0983          0.2744
 1150.6240          2.2193         63.1600        130.4967        127.6556          0.2692
 1150.7760          2.2272         60.6900        129.1156        126.2758          0.2642
 1150.9290          2.2201         62.6600        130.3546        127.5151          0.2687
 1151.0811          2.2210         65.4000        130.1976        127.3602          0.2681
 1151.2340          2.2259         69.8800        129.3495        126.5146          0.2651
 1151.3860          2.2284         71.9600        128.9098        126.0762          0.2635
 1151.5380          2.2231         71.7000        129.8353        127.0039          0.2668
 1151.6910          2.2286         74.9300        128.8777        126.0487          0.2634
 1151.8430          2.2240         71.3300        129.6772        126.8508          0.2663
 1151.9960          2.2219         74.7200        130.0375        127.2111          0.2676
 1152.1479          2.2167         72.6200        130.9473        128.1237          0.2708
 1152.3000          2.2022         73.9800        133.4572        130.6351          0.2799
 1152.4530          2.1948         76.2400        134.7280        131.9077          0.2845
 1152.6050          2.1957         73.9100        134.5705        131.7523          0.2839
 1152.7581          2.1939         71.3400        134.8839        132.0682          0.2851
 1152.9100          2.1847         76.9300        136.4839        133.6708          0.2908
 1153.0620          2.1771         79.4300        137.7901        134.9779          0.2955
 1153.2150          2.1693         80.8100        139.1505        136.3413          0.3005
 1153.3669          2.1665         76.6600        139.6366        136.8291          0.3022
 1153.5200          2.1680         74.9400        139.3644        136.5591          0.3012
 1153.6720          2.1745         76.2200        138.2390        135.4358          0.2972
 1153.8240          2.1716         77.2900        138.7564        135.9538          0.2990
 1153.9771          2.1762         78.2900        137.9556        135.1533          0.2961
 1154.1290          2.1697         77.2700        139.0693        136.2690          0.3002
 1154.2820          2.1792         81.6700        137.4368        134.6370          0.2943
 1154.4340          2.1874         89.1500        136.0084        133.2112          0.2891
 1154.5861          2.1911         88.4100        135.3645        132.5690          0.2868
