~VERSION INFORMATION
 VERS.                          2.0   : CWLS LOG ASCII STANDARD - VERSION 2.0
 WRAP.                          NO    : ONE LINE PER DEPTH STEP
#
~Well Information Section
#MNEM     .UNIT     DATA                DESCRIPTION
#-----    -----     --------            --------------
 STRT     .M        30.0270             : START DEPTH
 STOP     .M        2139.5481           : END DEPTH
 STEP     .M        0.0000              : INCREMENT DEPTH
 NULL     .         -999.2500           : NULL VALUE
 COMP     .                              :
 WELL     .         F03-02              : WELL NAME
 EKB      .M        30.0000             : KELLY BUSHING ELEVATION
 EGL      .M        0.0000              : GROUND LEVEL ELEVATION
 EPD      .M        0.0000              : PERMANENT DATUM ELEVATION
 FLD      .                              :
 XWELL	.M	619101			: XWELL LOCATION
 YWELL	.M	6089491			: YWELL LOCATION
 PROV     .                              :
 SRVC     .                              :
 PROV     .                              :
 DATE     .                              :
 API      .                              :
#
~Curve Information Section
#MNEM     .UNIT               Curve #DESCRIPTION
#-----    -----               ----   --------------
 DEPTH    .M                  : 1     Name = Domain Curve - Type = DEPTH
 RHOB     .g/cc               : 2     Name = Density_math 2 - Type = Density
 GR       .API                : 3     Name = GR_balanced - Type = Gamma Ray
 DT       .us/ft              : 4     Name = P-wave_1 - Type = P-wave
 DT       .us/ft              : 5     Name = P-wave_corr - Type = P-wave
 UNKNOWN  .fraction           : 6     Name = Porosity_math - Type = Porosity
~A (ASCII LOG DATA)
# ...
 1986.2330          2.0112          3.3600         68.7944         68.7938          0.3993
 1986.3860          2.0140          4.1900         69.4258         69.4250          0.3975
 1986.5380          2.0242          5.2800         70.0041         70.0032          0.3911
 1986.6899          2.0302          7.1900         68.6615         68.6609          0.3874
 1986.8430          2.0496          9.0600         70.2800         70.2797          0.3753
 1986.9950          2.0965         10.5000         71.0322         71.0317          0.3459
 1987.1479          2.0943         13.1300         73.3713         73.3708          0.3473
 1987.3000          2.0726         14.3300         73.1503         73.1498          0.3609
 1987.4520          2.0542         13.8800         70.7335         70.7330          0.3724
 1987.6050          2.0430         12.2000         68.9020         68.9013          0.3794
 1987.7570          2.0486         10.5900         69.3240         69.3230          0.3759
 1987.9100          2.0593         12.7300         71.1830         71.1816          0.3692
 1988.0620          2.0564         13.4300         72.9636         72.9622          0.3710
 1988.2140          2.0617         14.1900         74.4121         74.4102          0.3677
 1988.3669          2.0734         18.0200         75.3814         75.3790          0.3604
 1988.5190          2.0834         15.6600         73.4943         73.4921          0.3541
 1988.6720          2.0740         15.7000         71.6129         71.6118          0.3600
 1988.8240          2.0716         16.9200         70.7547         70.7542          0.3615
 1988.9760          2.0754         19.2100         71.0354         71.0356          0.3591
 1989.1290          2.1064         17.9000         72.7653         72.7654          0.3397
 1989.2810          2.1313         20.1000         75.0283         75.0279          0.3242
 1989.4340          2.1276         23.6700         75.4492         75.4485          0.3265
 1989.5861          2.1216         27.4700         75.0484         75.0485          0.3303
 1989.7380          2.1362         29.1500         75.2411         75.2419          0.3211
 1989.8910          2.1165         26.2400         74.4845         74.4856          0.3334
 1990.0430          2.0966         24.7400         74.6373         74.6381          0.3459
 1990.1960          2.0878         23.3200         73.3970         73.3971          0.3514
 1990.3480          2.1012         17.4000         69.6152         69.6148          0.3430
 1990.5000          2.0777         11.2800         69.0324         69.0322          0.3577
 1990.6530          2.0481         12.2500         68.5910         68.5909          0.3762
 1990.8051          2.0387         11.4600         68.3527         68.3523          0.3821
 1990.9580          2.0525          7.1900         69.6189         69.6187          0.3734
 1991.1100          2.0378          7.2000         69.2302         69.2300          0.3826
 1991.2620          2.0384          8.4100         68.2269         68.2265          0.3823
 1991.4150          2.0354          9.0000         69.5979         69.5971          0.3841
 1991.5670          2.0478          6.3700         69.6091         69.6079          0.3764
 1991.7200          2.0415          8.3100         68.9175         68.9165          0.3803
 1991.8719          2.0476          7.6600         68.7111         68.7105          0.3765
 1992.0240          2.0387          7.2500         69.7288         69.7281          0.3821
 1992.1770          2.0483          4.8500         69.6231         69.6226          0.3761
 1992.3290          2.0236          4.2000         68.2641         68.2638          0.3915
 1992.4821          2.0235          3.4400         68.3390         68.3386          0.3916
 1992.6340          2.0111          2.5500         69.4570         69.4569          0.3993
 1992.7860          2.0319          0.9700         70.3881         70.3880          0.3863
 1992.9390          2.0245          2.5200         68.8731         68.8735          0.3909
 1993.0909          2.0299          3.0900         69.4258         69.4268          0.3876
 1993.2440          2.0249          3.7400         70.3174         70.3185          0.3907
 1993.3960          2.0447          4.4500         70.6983         70.6990          0.3783
 1993.5480          2.0573          6.1900         71.8095         71.8102          0.3704
 1993.7010          2.0620          8.4800         71.2897         71.2905          0.3675
 1993.8530          2.0727         12.6900         78.1680         78.1688          0.3608
 1994.0060          2.1230         17.8600         82.1746         82.1752          0.3294
 1994.1580          2.1213         17.2800         83.7251         83.7256          0.3304
 1994.3101          2.1250         12.5700         83.3703         83.3703          0.3281
 1994.4630          2.1125         13.8200         84.0014         84.0011          0.3359
 1994.6150          2.1075         15.3800         85.0118         85.0112          0.3391
 1994.7679          2.1225         16.6600         84.1387         84.1379          0.3297
 1994.9200          2.1183         12.7900         84.9271         84.9264          0.3323
 1995.0720          2.1362         13.1900         81.2782         81.2777          0.3211
 1995.2250          2.1186         10.4200         69.1130         69.1125          0.3321
 1995.3770          2.1226          6.9600         69.5897         69.5897          0.3296
 1995.5300          2.1306          3.3700         68.1133         68.1132          0.3246
 1995.6820          2.1150          1.2900         67.1690         67.1688          0.3344
 1995.8340          2.0878          1.5600         66.5313         66.5307          0.3514
 1995.9871          2.0733          1.6800         67.9005         67.8994          0.3604
 1996.1390          2.0851          1.7300         65.7888         65.7875          0.3531
 1996.2920          2.0692          3.6500         67.8803         67.8791          0.3630
 1996.4440          2.0800          7.4200         75.3305         75.3291          0.3563
 1996.5959          2.1031         10.9500         81.0156         81.0139          0.3418
 1996.7490          2.1022         15.5700         87.5828         87.5813          0.3424
 1996.9010          2.1081         16.8900         87.4243         87.4228          0.3387
 1997.0540          2.1195         19.1600         86.7237         86.7222          0.3316
 1997.2061          2.1453         19.0500         85.2080         85.2065          0.3154
 1997.3580          2.1451         18.3500         78.9700         78.9683          0.3156
 1997.5110          2.1435         18.9500         81.6569         81.6550          0.3166
 1997.6630          2.1162         22.2600         81.6152         81.6133          0.3336
 1997.8160          2.1195         25.1700         81.6740         81.6723          0.3316
 1997.9680          2.1139         26.4400         84.9505         84.9487          0.3351
 1998.1200          2.0928         24.8300         81.1834         81.1820          0.3483
 1998.2729          2.0976         24.0000         82.5228         82.5215          0.3453
 1998.4250          2.1052         24.1300         82.4581         82.4567          0.3405
 1998.5780          2.1162         24.6800         81.3414         81.3405          0.3336
 1998.7300          2.1260         26.4200         82.6886         82.6876          0.3275
 1998.8820          2.1649         23.3100         78.8056         78.8044          0.3032
 1999.0350          2.1883         21.6600         77.2092         77.2082          0.2886
 1999.1870          2.2200         20.9400         73.9761         73.9753          0.2687
 1999.3400          2.3793         19.9400         74.7959         74.7956          0.1692
 1999.4919          2.5104         17.6200         69.7332         69.7327          0.0872
