~VERSION INFORMATION
 VERS.                          2.0   : CWLS LOG ASCII STANDARD - VERSION 2.0
 WRAP.                          NO    : ONE LINE PER DEPTH STEP
#
~Well Information Section
#MNEM     .UNIT     DATA                DESCRIPTION
#-----    -----     --------            --------------
 STRT     .M        30.0270             : START DEPTH
 STOP     .M        2139.5481           : END DEPTH
 STEP     .M        0.0000              : INCREMENT DEPTH
 NULL     .         -999.2500           : NULL VALUE
 COMP     .                              :
 WELL     .         F03-02              : WELL NAME
 EKB      .M        30.0000             : KELLY BUSHING ELEVATION
 EGL      .M        0.0000              : GROUND LEVEL ELEVATION
 EPD      .M        0.0000              : PERMANENT DATUM ELEVATION
 FLD      .                              :
 XWELL	.M	619101			: XWELL LOCATION
 YWELL	.M	6089491			: YWELL LOCATION
 PROV     .                              :
 SRVC     .                              :
 PROV     .                              :
 DATE     .                              :
 API      .                              :
#
~Curve Information Section
#MNEM     .UNIT               Curve #DESCRIPTION
#-----    -----               ----   --------------
 DEPTH    .M                  : 1     Name = Domain Curve - Type = DEPTH
 RHOB     .g/cc               : 2     Name = Density_math 2 - Type = Density
 GR       .API                : 3     Name = GR_balanced - Type = Gamma Ray
 DT       .us/ft              : 4     Name = P-wave_1 - Type = P-wave
 DT       .us/ft              : 5     Name = P-wave_corr - Type = P-wave
 UNKNOWN  .fraction           : 6     Name = Porosity_math - Type = Porosity
~A (ASCII LOG DATA)
# ...
  859.6920          2.1784         45.6900        137.5647        133.8810          0.2947
  859.8450          2.1855         42.0800        136.3382        132.6558          0.2903
  859.9970          2.1837         40.6300        136.6577        132.9755          0.2915
  860.1500          2.1864         41.2100        136.1924        132.5093          0.2898
  860.3020          2.1966         43.2500        134.4153        130.7327          0.2834
  860.4540          2.1952         40.4900        134.6549        130.9725          0.2842
  860.6070          2.1906         41.2600        135.4616        131.7809          0.2871
  860.7590          2.1945         42.5200        134.7805        131.1001          0.2847
  860.9120          2.1875         40.2200        135.9948        132.3161          0.2891
  861.0640          2.1779         42.1900        137.6646        133.9874          0.2951
  861.2160          2.1807         43.9100        137.1646        133.4874          0.2933
  861.3690          2.1848         40.5400        136.4709        132.7945          0.2908
  861.5210          2.1882         38.2900        135.8656        132.1877          0.2886
  861.6740          2.1913         37.0000        135.3425        131.6661          0.2867
  861.8260          2.1912         37.3700        135.3482        131.6726          0.2867
  861.9780          2.1886         38.4100        135.7970        132.1225          0.2883
  862.1310          2.1777         39.4400        137.6872        134.0139          0.2952
  862.2830          2.1842         42.4100        136.5714        132.8979          0.2911
  862.4360          2.1896         37.3200        135.6299        131.9558          0.2877
  862.5880          2.1750         38.0900        138.1509        134.4765          0.2968
  862.7400          2.1824         39.8600        136.8721        133.1996          0.2922
  862.8930          2.1819         41.8700        136.9702        133.2984          0.2926
  863.0450          2.1683         40.2600        139.3169        135.6465          0.3011
  863.1980          2.1711         37.0800        138.8283        135.1575          0.2993
  863.3500          2.1765         37.6200        137.9026        134.2341          0.2959
  863.5020          2.1677         39.2200        139.4163        135.7476          0.3014
  863.6550          2.1796         38.1800        137.3590        133.6885          0.2940
  863.8070          2.1851         39.3700        136.4036        132.7363          0.2905
  863.9600          2.1963         41.3200        134.4691        130.8005          0.2836
  864.1120          2.2015         43.3400        133.5668        129.8996          0.2803
  864.2640          2.2059         42.5600        132.8077        129.1416          0.2776
  864.4170          2.2056         42.2300        132.8600        129.1927          0.2777
  864.5690          2.1969         41.7600        134.3740        130.7070          0.2832
  864.7220          2.2034         36.4300        133.2378        129.5704          0.2791
  864.8740          2.1976         36.5100        134.2519        130.5851          0.2828
  865.0260          2.1872         37.7700        136.0424        132.3765          0.2892
  865.1790          2.1799         39.6300        137.3189        133.6548          0.2938
  865.3310          2.1750         41.9400        138.1557        134.4945          0.2969
  865.4840          2.1712         41.2300        138.8092        135.1477          0.2992
  865.6360          2.1736         37.8000        138.4063        134.7442          0.2978
  865.7880          2.1807         39.6500        137.1761        133.5143          0.2933
  865.9410          2.1865         41.3100        136.1707        132.5073          0.2897
  866.0930          2.1915         38.9000        135.3010        131.6392          0.2866
  866.2460          2.1970         39.9700        134.3499        130.6892          0.2831
  866.3980          2.1901         41.0500        135.5484        131.8884          0.2875
  866.5500          2.1926         38.8300        135.1157        131.4548          0.2859
  866.7030          2.1997         39.9000        133.8873        130.2260          0.2815
  866.8550          2.1982         43.6900        134.1393        130.4783          0.2824
  867.0080          2.1823         43.5700        136.8963        133.2360          0.2923
  867.1600          2.1824         42.2500        136.8827        133.2244          0.2923
  867.3120          2.1840         40.5100        136.6075        132.9495          0.2913
  867.4650          2.1896         38.2900        135.6310        131.9743          0.2877
  867.6170          2.1782         40.2900        137.5968        133.9394          0.2948
  867.7700          2.1851         43.4700        136.4143        132.7585          0.2906
  867.9220          2.1773         42.2900        137.7692        134.1117          0.2955
  868.0740          2.1673         41.4000        139.4858        135.8314          0.3017
  868.2270          2.1754         40.6200        138.0968        134.4420          0.2967
  868.3790          2.1762         39.9500        137.9453        134.2902          0.2961
  868.5320          2.1830         39.2300        136.7733        133.1178          0.2919
  868.6840          2.1945         38.3300        134.7800        131.1247          0.2847
  868.8360          2.2000         37.5400        133.8328        130.1782          0.2813
  868.9890          2.1965         37.8100        134.4337        130.7796          0.2834
  869.1410          2.1919         39.8500        135.2252        131.5712          0.2863
  869.2940          2.1855         41.9700        136.3466        132.6932          0.2903
  869.4460          2.1752         45.3000        138.1266        134.4743          0.2968
  869.5980          2.1784         46.8000        137.5782        133.9253          0.2948
  869.7510          2.1824         43.5700        136.8718        133.2210          0.2922
  869.9030          2.1709         46.1600        138.8728        135.2207          0.2995
  870.0560          2.1717         43.7800        138.7242        135.0742          0.2989
  870.2080          2.1723         41.3700        138.6348        134.9826          0.2986
  870.3600          2.1715         39.6100        138.7673        135.1176          0.2991
  870.5130          2.1832         38.4800        136.7351        133.0841          0.2917
  870.6650          2.1957         41.1800        134.5672        130.9173          0.2839
  870.8180          2.1941         42.8800        134.8582        131.2078          0.2850
  870.9700          2.1970         42.8700        134.3458        130.6975          0.2831
  871.1220          2.1959         45.3700        134.5397        130.8918          0.2838
  871.2750          2.1882         45.1800        135.8672        132.2167          0.2886
  871.4270          2.1910         44.7000        135.3843        131.7367          0.2869
  871.5800          2.1950         44.3400        134.6880        131.0390          0.2843
  871.7320          2.1817         44.6300        137.0033        133.3555          0.2927
  871.8840          2.1864         40.6700        136.1779        132.5301          0.2897
  872.0370          2.1880         39.3300        135.9007        132.2557          0.2887
  872.1890          2.1758         38.9800        138.0262        134.3802          0.2964
  872.3420          2.1843         39.1300        136.5410        132.8941          0.2910
  872.4940          2.1914         39.2400        135.3163        131.6710          0.2866
  872.6460          2.1966         41.4300        134.4213        130.7748          0.2834
  872.7990          2.2055         44.1300        132.8725        129.2275          0.2778
  872.9510          2.2054         40.5200        132.8969        129.2510          0.2779
