~VERSION INFORMATION
 VERS.                          2.0   : CWLS LOG ASCII STANDARD - VERSION 2.0
 WRAP.                          NO    : ONE LINE PER DEPTH STEP
#
~Well Information Section
#MNEM     .UNIT     DATA                DESCRIPTION
#-----    -----     --------            --------------
 STRT     .M        30.0270             : START DEPTH
 STOP     .M        2139.5481           : END DEPTH
 STEP     .M        0.0000              : INCREMENT DEPTH
 NULL     .         -999.2500           : NULL VALUE
 COMP     .                              :
 WELL     .         F03-02              : WELL NAME
 EKB      .M        30.0000             : KELLY BUSHING ELEVATION
 EGL      .M        0.0000              : GROUND LEVEL ELEVATION
 EPD      .M        0.0000              : PERMANENT DATUM ELEVATION
 FLD      .                              :
 XWELL	.M	619101			: XWELL LOCATION
 YWELL	.M	6089491			: YWELL LOCATION
 PROV     .                              :
 SRVC     .                              :
 PROV     .                              :
 DATE     .                              :
 API      .                              :
#
~Curve Information Section
#MNEM     .UNIT               Curve #DESCRIPTION
#-----    -----               ----   --------------
 DEPTH    .M                  : 1     Name = Domain Curve - Type = DEPTH
 RHOB     .g/cc               : 2     Name = Density_math 2 - Type = Density
 GR       .API                : 3     Name = GR_balanced - Type = Gamma Ray
 DT       .us/ft              : 4     Name = P-wave_1 - Type = P-wave
 DT       .us/ft              : 5     Name = P-wave_corr - Type = P-wave
 UNKNOWN  .fraction           : 6     Name = Porosity_math - Type = Porosity
~A (ASCII LOG DATA)
# ...
  445.7740          2.0794         45.1600        154.7039        158.5367          0.3566
  445.9260          2.0727         56.4000        155.8746        159.7049          0.3608
  446.0790          2.0608         56.1900        157.9336        161.7583          0.3683
  446.2310          2.0631         55.7900        157.5415        161.3623          0.3668
  446.3840          2.0700         56.4000        156.3338        160.1523          0.3625
  446.5360          2.0667         58.7300        156.9068        160.7229          0.3646
  446.6880          2.0626         56.0000        157.6194        161.4303          0.3671
  446.8410          2.0493         55.3200        159.9242        163.7322          0.3754
  446.9930          2.0256         56.4000        164.0200        167.8252          0.3902
  447.1460          2.0111         54.4200        166.5410        170.3443          0.3993
  447.2980          2.0118         53.0300        166.4155        170.2146          0.3989
  447.4500          2.0334         54.1900        162.6676        166.4608          0.3853
  447.6030          2.0656         54.8400        157.0944        160.8841          0.3652
  447.7550          2.0705         54.9300        156.2538        160.0403          0.3622
  447.9080          2.0748         56.1600        155.5009        159.2856          0.3595
  448.0600          2.0411         55.8500        161.3496        165.1319          0.3806
  448.2120          2.0305         52.6800        163.1841        166.9644          0.3872
  448.3650          2.0500         51.2400        159.7968        163.5719          0.3750
  448.5170          2.0420         53.8500        161.1922        164.9637          0.3800
  448.6700          2.0613         54.7200        157.8519        161.6206          0.3680
  448.8220          2.0507         57.8200        159.6865        163.4496          0.3746
  448.9740          2.0155         62.3000        165.7704        169.5303          0.3965
  449.1270          2.0182         59.0800        165.3098        169.0667          0.3949
  449.2790          2.0249         52.2500        164.1393        167.8936          0.3907
  449.4320          2.0277         53.0500        163.6687        167.4196          0.3890
  449.5840          2.0601         54.5800        158.0547        161.8015          0.3687
  449.7360          2.0192         55.3800        165.1333        168.8766          0.3942
  449.8890          2.0210         50.2800        164.8268        168.5685          0.3931
  450.0410          2.0198         45.0100        165.0269        168.7655          0.3939
  450.1940          2.0135         46.1200        166.1231        169.8584          0.3978
  450.3460          2.0388         47.7200        161.7474        165.4802          0.3820
  450.4980          2.0569         46.6300        158.6132        162.3402          0.3707
  450.6510          2.0706         45.4100        156.2301        159.9523          0.3621
  450.8030          2.0676         44.0300        156.7625        160.4802          0.3640
  450.9560          2.0714         41.3000        156.0961        159.8099          0.3616
  451.1080          2.0760         39.9200        155.3061        159.0163          0.3588
  451.2600          2.0866         40.2100        153.4562        157.1622          0.3521
  451.4130          2.0921         40.5900        152.5067        156.2105          0.3487
  451.5650          2.0959         41.4600        151.8520        155.5524          0.3463
  451.7180          2.0957         37.4000        151.8948        155.5919          0.3465
  451.8700          2.0751         35.6400        155.4494        159.1424          0.3593
  452.0220          2.0372         35.4400        162.0177        165.7061          0.3830
  452.1750          2.0083         36.6900        167.0285        170.7134          0.4011
  452.3270          2.0108         38.2100        166.5944        170.2763          0.3995
  452.4800          2.0248         39.3100        164.1722        167.8507          0.3908
  452.6320          2.0434         39.2500        160.9379        164.6128          0.3791
  452.7840          2.0587         41.3900        158.3020        161.9730          0.3696
  452.9370          2.0419         43.2600        161.2024        164.8707          0.3801
  453.0890          2.0268         39.9300        163.8241        167.4880          0.3895
  453.2420          2.0244         37.4800        164.2408        167.9021          0.3910
  453.3940          2.0305         39.2200        163.1730        166.8290          0.3872
  453.5460          2.0506         40.6200        159.7029        163.3560          0.3746
  453.6990          2.0582         38.8600        158.3813        162.0312          0.3699
  453.8510          2.0590         39.9900        158.2430        161.8900          0.3694
  454.0040          2.0587         41.0600        158.2972        161.9405          0.3696
  454.1560          2.0553         42.5100        158.8895        162.5304          0.3717
  454.3080          2.0293         41.0600        163.3880        167.0221          0.3879
  454.4610          2.0277         40.4900        163.6699        167.3029          0.3890
  454.6130          2.0269         42.0300        163.8035        167.4329          0.3894
  454.7660          2.0344         44.4500        162.4974        166.1222          0.3847
  454.9180          2.0516         46.7600        159.5248        163.1448          0.3740
  455.0700          2.0647         48.5900        157.2616        160.8776          0.3658
  455.2230          2.0615         47.1500        157.8049        161.4185          0.3678
  455.3750          2.0582         41.1500        158.3763        161.9852          0.3699
  455.5280          2.0511         38.5100        159.6112        163.2150          0.3743
  455.6800          2.0383         38.2000        161.8277        165.4317          0.3823
  455.8320          2.0237         37.9800        164.3560        167.9530          0.3914
  455.9850          2.0247         37.5500        164.1858        167.7811          0.3908
  456.1370          2.0279         36.8700        163.6203        167.2107          0.3888
  456.2900          2.0394         35.6500        161.6440        165.2328          0.3817
  456.4420          2.0520         36.2500        159.4565        163.0394          0.3738
  456.5940          2.0591         36.8900        158.2323        161.8139          0.3693
  456.7470          2.0497         34.9600        159.8479        163.4224          0.3752
  456.8990          2.0575         35.4600        158.5097        162.0846          0.3703
  457.0520          2.0692         36.4800        156.4832        160.0506          0.3630
  457.2040          2.0907         38.1200        152.7521        156.3179          0.3496
  457.3560          2.0905         38.6500        152.7961        156.3584          0.3497
  457.5090          2.0869         34.6200        153.4151        156.9726          0.3519
  457.6610          2.0773         32.3300        155.0697        158.6234          0.3579
  457.8140          2.0665         26.8800        156.9373        160.4885          0.3647
  457.9660          2.0629         27.9300        157.5663        161.1142          0.3669
  458.1180          2.0596         30.0600        158.1316        161.6752          0.3690
  458.2710          2.0664         29.1500        156.9613        160.5003          0.3647
  458.4230          2.0655         29.4400        157.1262        160.6616          0.3653
  458.5760          2.0582         30.5400        158.3827        161.9133          0.3699
  458.7280          2.0655         33.8200        157.1210        160.6477          0.3653
  458.8800          2.0721         37.3400        155.9702        159.4926          0.3612
  459.0330          2.0674         39.3500        156.7880        160.3083          0.3641
