~VERSION INFORMATION
 VERS.                          2.0   : CWLS LOG ASCII STANDARD - VERSION 2.0
 WRAP.                          NO    : ONE LINE PER DEPTH STEP
#
~Well Information Section
#MNEM     .UNIT     DATA                DESCRIPTION
#-----    -----     --------            --------------
 STRT     .M        30.0270             : START DEPTH
 STOP     .M        2139.5481           : END DEPTH
 STEP     .M        0.0000              : INCREMENT DEPTH
 NULL     .         -999.2500           : NULL VALUE
 COMP     .                              :
 WELL     .         F03-02              : WELL NAME
 EKB      .M        30.0000             : KELLY BUSHING ELEVATION
 EGL      .M        0.0000              : GROUND LEVEL ELEVATION
 EPD      .M        0.0000              : PERMANENT DATUM ELEVATION
 FLD      .                              :
 XWELL	.M	619101			: XWELL LOCATION
 YWELL	.M	6089491			: YWELL LOCATION
 PROV     .                              :
 SRVC     .                              :
 PROV     .                              :
 DATE     .                              :
 API      .                              :
#
~Curve Information Section
#MNEM     .UNIT               Curve #DESCRIPTION
#-----    -----               ----   --------------
 DEPTH    .M                  : 1     Name = Domain Curve - Type = DEPTH
 RHOB     .g/cc               : 2     Name = Density_math 2 - Type = Density
 GR       .API                : 3     Name = GR_balanced - Type = Gamma Ray
 DT       .us/ft              : 4     Name = P-wave_1 - Type = P-wave
 DT       .us/ft              : 5     Name = P-wave_corr - Type = P-wave
 UNKNOWN  .fraction           : 6     Name = Porosity_math - Type = Porosity
~A (ASCII LOG DATA)
# ...
  164.1390          2.0605         22.5900        157.9879        163.6149          0.3685
  164.2910          2.0605         19.5800        157.9856        163.6154          0.3684
  164.4440          2.0605         19.9000        157.9833        163.6163          0.3684
  164.5960          2.0605         20.5500        157.9811        163.6172          0.3684
  164.7480          2.0605         19.3300        157.9788        163.6180          0.3684
  164.9010          2.0605         20.7600        157.9765        163.6187          0.3684
  165.0530          2.0606         21.5700        157.9742        163.6197          0.3684
  165.2060          2.0606         22.4400        157.9719        163.6204          0.3684
  165.3580          2.0606         23.9200        157.9696        163.6211          0.3684
  165.5100          2.0606         23.5400        157.9673        163.6219          0.3684
  165.6630          2.0606         22.2600        157.9651        163.6227          0.3684
  165.8150          2.0606         21.1600        157.9628        163.6235          0.3684
  165.9680          2.0606         19.8800        157.9605        163.6243          0.3684
  166.1200          2.0606         18.5800        157.9582        163.6252          0.3683
  166.2720          2.0607         17.9900        157.9559        163.6260          0.3683
  166.4250          2.0607         18.5400        157.9536        163.6266          0.3683
  166.5770          2.0607         20.1900        157.9513        163.6278          0.3683
  166.7300          2.0607         19.7900        157.9491        163.6283          0.3683
  166.8820          2.0607         21.0000        157.9468        163.6291          0.3683
  167.0340          2.0607         22.0100        157.9445        163.6299          0.3683
  167.1870          2.0607         21.0700        157.9422        163.6306          0.3683
  167.3390          2.0608         19.8900        157.9399        163.6315          0.3683
  167.4920          2.0608         21.6900        157.9376        163.6323          0.3683
  167.6440          2.0608         23.9100        157.9353        163.6335          0.3683
  167.7960          2.0608         22.0600        157.9331        163.6340          0.3683
  167.9490          2.0608         22.2900        157.9308        163.6347          0.3682
  168.1010          2.0608         24.0500        157.9285        163.6354          0.3682
  168.2540          2.0608         25.1900        157.9262        163.6363          0.3682
  168.4060          2.0608         22.4400        157.9239        163.6371          0.3682
  168.5580          2.0609         24.6100        157.9216        163.6379          0.3682
  168.7110          2.0609         25.2300        157.9193        163.6387          0.3682
  168.8630          2.0609         23.3500        157.9171        163.6395          0.3682
  169.0160          2.0609         19.9600        157.9148        163.6406          0.3682
  169.1680          2.0609         21.4100        157.9125        163.6410          0.3682
  169.3200          2.0609         20.5300        157.9102        163.6419          0.3682
  169.4730          2.0609         19.4100        157.9079        163.6427          0.3682
  169.6250          2.0610         19.5900        157.9056        163.6434          0.3682
  169.7780          2.0610         20.2000        157.9033        163.6443          0.3681
  169.9300          2.0610         18.5400        157.9010        163.6454          0.3681
  170.0820          2.0610         16.9200        157.8988        163.6459          0.3681
  170.2350          2.0610         16.1400        157.8965        163.6466          0.3681
  170.3870          2.0610         15.9800        157.8942        163.6475          0.3681
  170.5400          2.0610         17.1900        157.8919        163.6483          0.3681
  170.6920          2.0610         18.1300        157.8896        163.6491          0.3681
  170.8440          2.0611         18.6300        157.8873        163.6497          0.3681
  170.9970          2.0611         18.7300        157.8850        163.6506          0.3681
  171.1490          2.0611         18.9300        157.8828        163.6516          0.3681
  171.3020          2.0611         20.7900        157.8805        163.6522          0.3681
  171.4540          2.0611         22.2900        157.8782        163.6534          0.3681
  171.6060          2.0611         21.4000        157.8759        163.6539          0.3680
  171.7590          2.0611         19.6900        157.8736        163.6547          0.3680
  171.9110          2.0611         20.0200        157.8713        163.6554          0.3680
  172.0640          2.0612         21.3500        157.8690        163.6562          0.3680
  172.2160          2.0612         22.4000        157.8668        163.6571          0.3680
  172.3680          2.0612         19.0500        157.8645        163.6581          0.3680
  172.5210          2.0612         19.5400        157.8622        163.6586          0.3680
  172.6730          2.0612         20.1900        157.8599        163.6595          0.3680
  172.8260          2.0612         18.9900        157.8576        163.6602          0.3680
  172.9780          2.0612         18.8400        157.8553        163.6609          0.3680
  173.1300          2.0613         20.6500        157.8530        163.6618          0.3680
  173.2830          2.0613         21.9000        157.8508        163.6626          0.3680
  173.4350          2.0613         21.7000        157.8485        163.6633          0.3679
  173.5880          2.0613         18.8400        157.8462        163.6641          0.3679
  173.7400          2.0613         19.0700        157.8439        163.6650          0.3679
  173.8920          2.0613         18.8500        157.8416        163.6661          0.3679
  174.0450          2.0613         19.0900        157.8393        163.6666          0.3679
  174.1970          2.0613         19.3400        157.8371        163.6675          0.3679
  174.3500          2.0614         19.0800        157.8347        163.6682          0.3679
  174.5020          2.0614         18.2300        157.8325        163.6689          0.3679
  174.6540          2.0614         17.0800        157.8302        163.6699          0.3679
  174.8070          2.0614         16.6300        157.8279        163.6706          0.3679
  174.9590          2.0614         19.1900        157.8256        163.6717          0.3679
  175.1120          2.0614         17.1700        157.8233        163.6722          0.3679
  175.2640          2.0614         17.2500        157.8210        163.6731          0.3679
  175.4160          2.0615         19.1000        157.8188        163.6737          0.3678
  175.5690          2.0615         19.7800        157.8165        163.6746          0.3678
  175.7210          2.0615         19.0700        157.8142        163.6752          0.3678
  175.8740          2.0615         19.3000        157.8119        163.6762          0.3678
  176.0260          2.0615         21.3000        157.8096        163.6770          0.3678
  176.1780          2.0615         19.0900        157.8073        163.6780          0.3678
  176.3310          2.0615         19.3600        157.8050        163.6787          0.3678
  176.4830          2.0615         19.5600        157.8027        163.6794          0.3678
  176.6360          2.0616         17.5400        157.8005        163.6802          0.3678
  176.7880          2.0616         17.5700        157.7982        163.6809          0.3678
  176.9400          2.0616         16.5300        157.7959        163.6818          0.3678
  177.0930          2.0616         17.0400        157.7936        163.6826          0.3678
  177.2450          2.0616         17.9600        157.7913        163.6837          0.3677
  177.3980          2.0616         18.0900        157.7890        163.6841          0.3677
