~VERSION INFORMATION
 VERS.                          2.0   : CWLS LOG ASCII STANDARD - VERSION 2.0
 WRAP.                          NO    : ONE LINE PER DEPTH STEP
#
~Well Information Section
#MNEM     .UNIT     DATA                DESCRIPTION
#-----    -----     --------            --------------
 STRT     .M        30.0270             : START DEPTH
 STOP     .M        2139.5481           : END DEPTH
 STEP     .M        0.0000              : INCREMENT DEPTH
 NULL     .         -999.2500           : NULL VALUE
 COMP     .                              :
 WELL     .         F03-02              : WELL NAME
 EKB      .M        30.0000             : KELLY BUSHING ELEVATION
 EGL      .M        0.0000              : GROUND LEVEL ELEVATION
 EPD      .M        0.0000              : PERMANENT DATUM ELEVATION
 FLD      .                              :
 XWELL	.M	619101			: XWELL LOCATION
 YWELL	.M	6089491			: YWELL LOCATION
 PROV     .                              :
 SRVC     .                              :
 PROV     .                              :
 DATE     .                              :
 API      .                              :
#
~Curve Information Section
#MNEM     .UNIT               Curve #DESCRIPTION
#-----    -----               ----   --------------
 DEPTH    .M                  : 1     Name = Domain Curve - Type = DEPTH
 RHOB     .g/cc               : 2     Name = Density_math 2 - Type = Density
 GR       .API                : 3     Name = GR_balanced - Type = Gamma Ray
 DT       .us/ft              : 4     Name = P-wave_1 - Type = P-wave
 DT       .us/ft              : 5     Name = P-wave_corr - Type = P-wave
 UNKNOWN  .fraction           : 6     Name = Porosity_math - Type = Porosity
~A (ASCII LOG DATA)
# ...
  311.6620          2.0733         31.1500        155.7751        161.3109          0.3605
  311.8140          2.0733         34.0100        155.7728        161.3012          0.3605
  311.9670          2.0733         32.9000        155.7705        161.2937          0.3604
  312.1190          2.0733         30.9400        155.7682        161.2852          0.3604
  312.2720          2.0733         30.0500        155.7659        161.2763          0.3604
  312.4240          2.0733         31.5300        155.7636        161.2682          0.3604
  312.5760          2.0733         34.1100        155.7614        161.2595          0.3604
  312.7290          2.0733         30.7500        155.7591        161.2518          0.3604
  312.8810          2.0734         31.3100        155.7568        161.2431          0.3604
  313.0340          2.0734         32.2500        155.7545        161.2345          0.3604
  313.1860          2.0734         30.6200        155.7522        161.2258          0.3604
  313.3380          2.0734         30.7700        155.7499        161.2186          0.3604
  313.4910          2.0734         32.4700        155.7476        161.2092          0.3604
  313.6430          2.0734         34.0300        155.7454        161.2014          0.3604
  313.7960          2.0734         31.5100        155.7431        161.1899          0.3603
  313.9480          2.0735         29.4600        155.7408        161.1806          0.3603
  314.1000          2.0735         26.3800        155.7385        161.1726          0.3603
  314.2530          2.0735         27.2600        155.7362        161.1636          0.3603
  314.4050          2.0735         29.4100        155.7339        161.1575          0.3603
  314.5580          2.0735         28.7000        155.7316        161.1477          0.3603
  314.7100          2.0735         29.4800        155.7294        161.1402          0.3603
  314.8620          2.0735         30.3400        155.7271        161.1300          0.3603
  315.0150          2.0735         31.6100        155.7248        161.1226          0.3603
  315.1670          2.0736         30.0100        155.7225        161.1126          0.3603
  315.3200          2.0736         30.7900        155.7202        161.1039          0.3603
  315.4720          2.0736         31.6800        155.7179        161.0964          0.3603
  315.6240          2.0736         32.2700        155.7156        161.0868          0.3603
  315.7770          2.0736         27.7300        155.7133        161.0798          0.3602
  315.9290          2.0736         25.8200        155.7111        161.0717          0.3602
  316.0820          2.0736         26.7800        155.7088        161.0616          0.3602
  316.2340          2.0737         28.2100        155.7065        161.0525          0.3602
  316.3860          2.0737         30.1200        155.7042        161.0448          0.3602
  316.5390          2.0737         29.1000        155.7019        161.0357          0.3602
  316.6910          2.0737         30.7800        155.6996        161.0265          0.3602
  316.8440          2.0737         32.0200        155.6973        161.0189          0.3602
  316.9960          2.0737         31.7800        155.6951        161.0096          0.3602
  317.1480          2.0737         28.8400        155.6928        161.0016          0.3602
  317.3010          2.0737         27.4200        155.6905        160.9927          0.3602
  317.4530          2.0738         27.5600        155.6882        160.9838          0.3602
  317.6060          2.0738         28.6700        155.6859        160.9761          0.3601
  317.7580          2.0738         29.9800        155.6836        160.9668          0.3601
  317.9100          2.0738         31.4600        155.6814        160.9580          0.3601
  318.0630          2.0738         31.3000        155.6791        160.9476          0.3601
  318.2150          2.0738         27.7700        155.6768        160.9386          0.3601
  318.3680          2.0738         27.2200        155.6745        160.9303          0.3601
  318.5200          2.0739         26.5600        155.6722        160.9225          0.3601
  318.6720          2.0739         27.6900        155.6699        160.9137          0.3601
  318.8250          2.0739         28.8400        155.6676        160.9041          0.3601
  318.9770          2.0739         31.1700        155.6653        160.8967          0.3601
  319.1300          2.0739         28.5300        155.6631        160.8878          0.3601
  319.2820          2.0739         29.0000        155.6608        160.8799          0.3601
  319.4340          2.0739         30.1300        155.6585        160.8696          0.3600
  319.5870          2.0739         32.2900        155.6562        160.8617          0.3600
  319.7390          2.0740         27.5600        155.6539        160.8519          0.3600
  319.8920          2.0740         28.5700        155.6516        160.8420          0.3600
  320.0440          2.0740         31.3200        155.6493        160.8335          0.3600
  320.1960          2.0740         30.5400        155.6471        160.8237          0.3600
  320.3490          2.0740         31.3000        155.6448        160.8173          0.3600
  320.5010          2.0740         34.5400        155.6425        160.8083          0.3600
  320.6540          2.0740         36.7000        155.6402        160.8017          0.3600
  320.8060          2.0740         34.7200        155.6379        160.7918          0.3600
  320.9580          2.0741         37.8200        155.6356        160.7841          0.3600
  321.1110          2.0741         36.8700        155.6333        160.7753          0.3600
  321.2630          2.0741         34.5300        155.6311        160.7658          0.3599
  321.4160          2.0741         36.0800        155.6288        160.7577          0.3599
  321.5680          2.0741         32.1900        155.6265        160.7488          0.3599
  321.7200          2.0741         33.2300        155.6242        160.7404          0.3599
  321.8730          2.0741         35.0800        155.6219        160.7324          0.3599
  322.0250          2.0742         38.5400        155.6196        160.7224          0.3599
  322.1780          2.0742         38.3500        155.6173        160.7142          0.3599
  322.3300          2.0742         35.8800        155.6151        160.7054          0.3599
  322.4820          2.0742         30.3500        155.6128        160.6961          0.3599
  322.6350          2.0742         28.7500        155.6105        160.6880          0.3599
  322.7870          2.0742         26.0400        155.6082        160.6796          0.3599
  322.9400          2.0742         26.7000        155.6059        160.6702          0.3599
  323.0920          2.0742         29.0200        155.6036        160.6622          0.3598
  323.2440          2.0743         32.3800        155.6013        160.6528          0.3598
  323.3970          2.0743         33.1400        155.5990        160.6431          0.3598
  323.5490          2.0743         33.0100        155.5968        160.6351          0.3598
  323.7020          2.0743         32.5400        155.5945        160.6271          0.3598
  323.8540          2.0743         31.9300        155.5922        160.6196          0.3598
  324.0060          2.0743         30.6800        155.5899        160.6098          0.3598
  324.1590          2.0743         29.4800        155.5876        160.6021          0.3598
  324.3110          2.0744         29.6000        155.5853        160.5920          0.3598
  324.4640          2.0744         32.1600        155.5830        160.5855          0.3598
  324.6160          2.0744         30.4900        155.5808        160.5756          0.3598
  324.7680          2.0744         30.5200        155.5785        160.5645          0.3598
  324.9210          2.0744         30.7400        155.5762        160.5567          0.3597
