~VERSION INFORMATION
 VERS.                          2.0   : CWLS LOG ASCII STANDARD - VERSION 2.0
 WRAP.                          NO    : ONE LINE PER DEPTH STEP
#
~Well Information Section
#MNEM     .UNIT     DATA                DESCRIPTION
#-----    -----     --------            --------------
 STRT     .M        30.0000             : START DEPTH
 STOP     .M        1899.9708           : END DEPTH
 STEP     .M        0.0000              : INCREMENT DEPTH
 NULL     .         -999.2500           : NULL VALUE
 COMP     .                              :
 WELL     .         F03-04              : WELL NAME
 EKB      .M        30.0000             : KELLY BUSHING ELEVATION
 EGL      .M        0.0000              : GROUND LEVEL ELEVATION
 EPD      .M        0.0000              : PERMANENT DATUM ELEVATION
 FLD      .                              :
XWELL		.M		623256		: XWELL LOCATION
YWELL		.M		6082586		: YWELL LOCATION
 PROV     .                              :
 SRVC     .                              :
 PROV     .                              :
 DATE     .                              :
 API      .                              :
#
~Curve Information Section
#MNEM     .UNIT               Curve #DESCRIPTION
#-----    -----               ----   --------------
 DEPTH    .M                  : 1     Name = Domain Curve - Type = DEPTH
 RHOB     .g/cc               : 2     Name = Density_math - Type = Density
 GR       .API                : 3     Name = Gamma Ray_math - Type = Gamma Ray
 DT       .us/ft              : 4     Name = P-wave_1 - Type = P-wave
 DT       .us/ft              : 5     Name = P-wave_corr - Type = P-wave
 UNKNOWN  .fraction           : 6     Name = Porosity_math - Type = Porosity
~A (ASCII LOG DATA)
# ...
  267.7668          2.1121         26.3500        149.0558        149.0542          0.3362
  267.9192          2.1121         26.3500        149.0520        149.0504          0.3362
  268.0716          2.1121         26.3500        149.0482        149.0466          0.3362
  268.2240          2.1121         25.7500        149.0444        149.0428          0.3362
  268.3764          2.1122         25.4500        149.0406        149.0390          0.3362
  268.5288          2.1122         24.5500        149.0368        149.0352          0.3361
  268.6812          2.1122         24.2500        149.0330        149.0314          0.3361
  268.8336          2.1122         23.3500        149.0292        149.0276          0.3361
  268.9860          2.1122         23.3500        149.0253        149.0237          0.3361
  269.1384          2.1123         23.3500        149.0215        149.0199          0.3361
  269.2908          2.1123         24.2500        149.0177        149.0161          0.3361
  269.4432          2.1123         25.1500        149.0139        149.0123          0.3361
  269.5956          2.1123         25.1500        149.0101        149.0085          0.3360
  269.7480          2.1124         25.4500        149.0063        149.0047          0.3360
  269.9004          2.1124         25.4500        149.0025        149.0009          0.3360
  270.0528          2.1124         25.4500        148.9987        148.9971          0.3360
  270.2052          2.1124         26.0500        148.9949        148.9933          0.3360
  270.3576          2.1124         26.6500        148.9911        148.9895          0.3360
  270.5100          2.1125         26.6500        148.9872        148.9856          0.3360
  270.6624          2.1125         26.6500        148.9834        148.9818          0.3359
  270.8148          2.1125         24.5500        148.9796        148.9780          0.3359
  270.9672          2.1125         24.5500        148.9758        148.9742          0.3359
  271.1196          2.1125         24.5500        148.9720        148.9704          0.3359
  271.2720          2.1126         24.5500        148.9682        148.9666          0.3359
  271.4244          2.1126         23.3500        148.9644        148.9628          0.3359
  271.5768          2.1126         22.7500        148.9606        148.9590          0.3359
  271.7292          2.1126         22.7500        148.9568        148.9552          0.3359
  271.8816          2.1127         22.7500        148.9530        148.9513          0.3358
  272.0340          2.1127         22.7500        148.9491        148.9475          0.3358
  272.1864          2.1127         21.5500        148.9453        148.9437          0.3358
  272.3388          2.1127         21.1301        148.9415        148.9399          0.3358
  272.4912          2.1127         20.3500        148.9377        148.9361          0.3358
  272.6436          2.1128         20.3500        148.9339        148.9323          0.3358
  272.7960          2.1128         20.3500        148.9301        148.9285          0.3358
  272.9484          2.1128         20.3500        148.9263        148.9247          0.3357
  273.1008          2.1128         20.3500        148.9225        148.9209          0.3357
  273.2532          2.1129         20.3500        148.9187        148.9171          0.3357
  273.4056          2.1129         23.0500        148.9149        148.9132          0.3357
  273.5580          2.1129         23.6500        148.9111        148.9094          0.3357
  273.7104          2.1129         23.6500        148.9072        148.9056          0.3357
  273.8628          2.1129         23.6500        148.9034        148.9018          0.3357
  274.0152          2.1130         23.6500        148.8996        148.8980          0.3356
  274.1676          2.1130         23.6500        148.8958        148.8942          0.3356
  274.3200          2.1130         23.6500        148.8920        148.8904          0.3356
  274.4724          2.1130         23.6500        148.8882        148.8866          0.3356
  274.6248          2.1131         23.6500        148.8844        148.8828          0.3356
  274.7772          2.1131         23.6500        148.8806        148.8790          0.3356
  274.9296          2.1131         23.6500        148.8768        148.8751          0.3356
  275.0820          2.1131         23.3500        148.8730        148.8714          0.3355
  275.2344          2.1131         22.7500        148.8691        148.8675          0.3355
  275.3868          2.1132         22.7500        148.8653        148.8637          0.3355
  275.5392          2.1132         22.7500        148.8615        148.8599          0.3355
  275.6916          2.1132         23.2382        148.8577        148.8561          0.3355
  275.8440          2.1132         23.7204        148.8539        148.8523          0.3355
  275.9964          2.1133         24.4236        148.8501        148.8485          0.3355
  276.1488          2.1133         25.3278        148.8463        148.8447          0.3355
  276.3012          2.1133         26.2319        148.8425        148.8409          0.3354
  276.4536          2.1133         27.1360        148.8387        148.8371          0.3354
  276.6060          2.1133         27.5500        148.8349        148.8333          0.3354
  276.7584          2.1134         27.5500        148.8310        148.8294          0.3354
  276.9108          2.1134         27.5500        148.8272        148.8256          0.3354
  277.0632          2.1134         27.2500        148.8234        148.8218          0.3354
  277.2156          2.1134         26.9500        148.8196        148.8180          0.3354
  277.3680          2.1135         26.0500        148.8158        148.8142          0.3353
  277.5204          2.1135         26.0500        148.8120        148.8104          0.3353
  277.6728          2.1135         26.0500        148.8082        148.8066          0.3353
  277.8252          2.1135         26.0500        148.8044        148.8028          0.3353
  277.9776          2.1135         26.3500        148.8006        148.7990          0.3353
  278.1300          2.1136         26.6500        148.7968        148.7951          0.3353
  278.2824          2.1136         27.2500        148.7929        148.7913          0.3353
  278.4348          2.1136         29.0500        148.7891        148.7875          0.3352
  278.5872          2.1136         29.0500        148.7853        148.7837          0.3352
  278.7396          2.1136         29.0500        148.7815        148.7799          0.3352
  278.8920          2.1137         27.5500        148.7777        148.7761          0.3352
  279.0444          2.1137         25.4500        148.7739        148.7723          0.3352
  279.1968          2.1137         23.9500        148.7701        148.7685          0.3352
  279.3492          2.1137         23.6500        148.7663        148.7646          0.3352
  279.5016          2.1138         23.6500        148.7625        148.7608          0.3352
  279.6540          2.1138         23.6500        148.7587        148.7570          0.3351
  279.8064          2.1138         24.8500        148.7548        148.7532          0.3351
  279.9588          2.1138         25.4500        148.7510        148.7494          0.3351
  280.1112          2.1138         25.7500        148.7472        148.7456          0.3351
  280.2636          2.1139         25.7500        148.7434        148.7418          0.3351
  280.4160          2.1139         25.7500        148.7396        148.7380          0.3351
  280.5684          2.1139         25.4500        148.7358        148.7342          0.3351
  280.7208          2.1139         25.4500        148.7320        148.7304          0.3350
  280.8732          2.1140         25.4500        148.7282        148.7265          0.3350
  281.0256          2.1140         25.7500        148.7244        148.7227          0.3350
