~VERSION INFORMATION
 VERS.                          2.0   : CWLS LOG ASCII STANDARD - VERSION 2.0
 WRAP.                          NO    : ONE LINE PER DEPTH STEP
#
~Well Information Section
#MNEM     .UNIT     DATA                DESCRIPTION
#-----    -----     --------            --------------
 STRT     .M        30.0270             : START DEPTH
 STOP     .M        2139.5481           : END DEPTH
 STEP     .M        0.0000              : INCREMENT DEPTH
 NULL     .         -999.2500           : NULL VALUE
 COMP     .                              :
 WELL     .         F03-02              : WELL NAME
 EKB      .M        30.0000             : KELLY BUSHING ELEVATION
 EGL      .M        0.0000              : GROUND LEVEL ELEVATION
 EPD      .M        0.0000              : PERMANENT DATUM ELEVATION
 FLD      .                              :
 XWELL	.M	619101			: XWELL LOCATION
 YWELL	.M	6089491			: YWELL LOCATION
 PROV     .                              :
 SRVC     .                              :
 PROV     .                              :
 DATE     .                              :
 API      .                              :
#
~Curve Information Section
#MNEM     .UNIT               Curve #DESCRIPTION
#-----    -----               ----   --------------
 DEPTH    .M                  : 1     Name = Domain Curve - Type = DEPTH
 RHOB     .g/cc               : 2     Name = Density_math 2 - Type = Density
 GR       .API                : 3     Name = GR_balanced - Type = Gamma Ray
 DT       .us/ft              : 4     Name = P-wave_1 - Type = P-wave
 DT       .us/ft              : 5     Name = P-wave_corr - Type = P-wave
 UNKNOWN  .fraction           : 6     Name = Porosity_math - Type = Porosity
~A (ASCII LOG DATA)
# ...
 1288.8510          2.2034         59.9400        133.2420        132.0499          0.2791
 1289.0031          2.2122         60.9000        131.7131        130.5225          0.2736
 1289.1560          2.2020         57.0000        133.4777        132.2884          0.2800
 1289.3080          2.1966         60.8200        134.4169        133.2295          0.2834
 1289.4600          2.1944         61.6300        134.8044        133.6186          0.2848
 1289.6130          2.1795         56.7300        137.3865        136.2012          0.2941
 1289.7650          2.1685         57.9600        139.2888        138.1062          0.3010
 1289.9180          2.1610         58.8700        140.5783        139.3976          0.3056
 1290.0699          2.1552         61.5900        141.5811        140.4005          0.3092
 1290.2220          2.1531         66.7300        141.9480        140.7712          0.3106
 1290.3750          2.1636         67.7900        140.1342        138.9582          0.3040
 1290.5270          2.1743         71.8300        138.2849        137.1114          0.2973
 1290.6801          2.1886         74.1300        135.8015        134.6296          0.2884
 1290.8320          2.1868         74.6300        136.1160        134.9467          0.2895
 1290.9840          2.1845         70.5300        136.5137        135.3458          0.2909
 1291.1370          2.1585         71.6100        141.0141        139.8472          0.3072
 1291.2889          2.1523         74.4700        142.0865        140.9217          0.3111
 1291.4420          2.1731         76.0600        138.4890        137.3263          0.2981
 1291.5940          2.1777         71.3800        137.6848        136.5235          0.2952
 1291.7460          2.1660         72.9200        139.7183        138.5583          0.3025
 1291.8990          2.1543         76.6800        141.7364        140.5768          0.3098
 1292.0510          2.1369         78.0300        144.7593        143.6015          0.3207
 1292.2040          2.1237         77.3800        147.0399        145.8834          0.3289
 1292.3560          2.0971         79.8100        151.6460        150.4889          0.3456
 1292.5081          2.0999         79.6900        151.1579        150.0030          0.3438
 1292.6610          2.1155         75.1300        148.4536        147.3010          0.3340
 1292.8130          2.1078         68.8800        149.7975        148.6472          0.3389
 1292.9659          2.1115         70.2800        149.1518        148.0031          0.3366
 1293.1180          2.1341         74.3600        145.2416        144.0949          0.3224
 1293.2700          2.1101         77.6900        149.3918        148.2475          0.3374
 1293.4230          2.1149         77.5600        148.5692        147.4258          0.3345
 1293.5750          2.1309         84.6000        145.7919        144.6509          0.3244
 1293.7280          2.1038         83.9400        150.4918        149.3541          0.3414
 1293.8800          2.1029         77.3600        150.6344        149.4989          0.3419
 1294.0320          2.0931         80.0300        152.3456        151.2120          0.3481
 1294.1851          2.0942         77.4500        152.1546        151.0219          0.3474
 1294.3370          2.1092         80.4700        149.5573        148.4274          0.3380
 1294.4900          2.1248         78.4400        146.8458        145.7171          0.3282
 1294.6420          2.1327         75.5500        145.4784        144.3514          0.3233
 1294.7939          2.1655         75.0000        139.7978        138.6719          0.3028
 1294.9470          2.2078         71.6900        132.4780        131.3528          0.2764
 1295.0990          2.2075         70.7400        132.5236        131.3995          0.2765
 1295.2520          2.2050         72.8700        132.9568        131.8344          0.2781
 1295.4041          2.1717         76.5800        138.7230        137.6035          0.2989
 1295.5560          2.1283         84.3700        146.2431        145.1267          0.3261
 1295.7090          2.1311         83.8400        145.7524        144.6378          0.3243
 1295.8610          2.1412         82.9800        144.0094        142.8972          0.3180
 1296.0140          2.1339         72.6800        145.2752        144.1653          0.3226
 1296.1660          2.1254         73.4400        146.7398        145.6306          0.3278
 1296.3180          2.1087         76.5000        149.6419        148.5351          0.3383
 1296.4709          2.1011         77.7300        150.9536        149.8479          0.3431
 1296.6230          2.0873         77.6600        153.3479        152.2443          0.3517
 1296.7760          2.0999         84.2200        151.1673        150.0644          0.3438
 1296.9280          2.1051         83.7800        150.2630        149.1600          0.3406
 1297.0800          2.1088         79.4200        149.6170        148.5180          0.3382
 1297.2330          2.1243         75.1500        146.9451        145.8477          0.3286
 1297.3850          2.1312         76.4500        145.7484        144.6517          0.3243
 1297.5380          2.1165         79.9300        148.2914        147.1967          0.3335
 1297.6899          2.1048         81.7000        150.3174        149.2252          0.3408
 1297.8420          2.0977         87.9100        151.5392        150.4490          0.3452
 1297.9950          2.0845         91.6500        153.8207        152.7316          0.3534
 1298.1470          2.0846         89.5400        153.8183        152.7308          0.3534
 1298.3000          2.0795         84.6400        154.6913        153.6059          0.3566
 1298.4520          2.0820         82.6900        154.2651        153.1812          0.3550
 1298.6040          2.0953         85.0300        151.9664        150.8847          0.3467
 1298.7570          2.0739         86.6200        155.6620        154.5824          0.3601
 1298.9091          2.0785         85.6000        154.8586        153.7811          0.3572
 1299.0620          2.0862         80.1500        153.5368        152.4602          0.3524
 1299.2140          2.0880         79.4000        153.2182        152.1427          0.3512
 1299.3660          2.0897         77.1300        152.9301        151.8548          0.3502
 1299.5190          2.0779         73.0400        154.9652        153.8910          0.3575
 1299.6710          2.0798         73.3300        154.6454        153.5721          0.3564
 1299.8240          2.0869         74.2900        153.4073        152.3353          0.3519
 1299.9760          2.0985         76.6000        151.4113        150.3416          0.3447
 1300.1281          2.1049         80.7500        150.2934        149.2256          0.3407
 1300.2810          2.1000         78.7200        151.1518        150.0861          0.3438
 1300.4330          2.0884         72.0700        153.1571        152.0936          0.3510
 1300.5861          2.0774         72.4800        155.0500        153.9882          0.3578
 1300.7380          2.0579         70.9200        158.4387        157.3781          0.3701
 1300.8900          2.0404         71.1500        161.4561        160.3969          0.3810
 1301.0430          2.0335         63.8300        162.6586        161.6006          0.3853
 1301.1949          2.0446         61.3000        160.7436        159.6885          0.3784
 1301.3480          2.0386         65.4700        161.7755        160.7220          0.3821
 1301.5000          2.0718         67.0100        156.0231        154.9712          0.3614
 1301.6520          2.0923         65.0200        152.4804        151.4294          0.3486
 1301.8051          2.0884         66.5600        153.1527        152.1039          0.3510
 1301.9570          2.0650         68.2200        157.2089        156.1612          0.3656
 1302.1100          2.0693         69.4000        156.4519        155.4051          0.3629
