~VERSION INFORMATION
 VERS.                          2.0   : CWLS LOG ASCII STANDARD - VERSION 2.0
 WRAP.                          NO    : ONE LINE PER DEPTH STEP
#
~Well Information Section
#MNEM     .UNIT     DATA                DESCRIPTION
#-----    -----     --------            --------------
 STRT     .M        30.0270             : START DEPTH
 STOP     .M        2139.5481           : END DEPTH
 STEP     .M        0.0000              : INCREMENT DEPTH
 NULL     .         -999.2500           : NULL VALUE
 COMP     .                              :
 WELL     .         F03-02              : WELL NAME
 EKB      .M        30.0000             : KELLY BUSHING ELEVATION
 EGL      .M        0.0000              : GROUND LEVEL ELEVATION
 EPD      .M        0.0000              : PERMANENT DATUM ELEVATION
 FLD      .                              :
 XWELL	.M	619101			: XWELL LOCATION
 YWELL	.M	6089491			: YWELL LOCATION
 PROV     .                              :
 SRVC     .                              :
 PROV     .                              :
 DATE     .                              :
 API      .                              :
#
~Curve Information Section
#MNEM     .UNIT               Curve #DESCRIPTION
#-----    -----               ----   --------------
 DEPTH    .M                  : 1     Name = Domain Curve - Type = DEPTH
 RHOB     .g/cc               : 2     Name = Density_math 2 - Type = Density
 GR       .API                : 3     Name = GR_balanced - Type = Gamma Ray
 DT       .us/ft              : 4     Name = P-wave_1 - Type = P-wave
 DT       .us/ft              : 5     Name = P-wave_corr - Type = P-wave
 UNKNOWN  .fraction           : 6     Name = Porosity_math - Type = Porosity
~A (ASCII LOG DATA)
# ...
  725.5800          2.1443         48.5100        143.4687        139.6119          0.3160
  725.7330          2.1348         49.1500        145.1120        141.2542          0.3220
  725.8850          2.1242         47.2800        146.9503        143.0896          0.3286
  726.0380          2.1201         45.1300        147.6635        143.8005          0.3312
  726.1900          2.1184         46.6300        147.9529        144.0892          0.3322
  726.3420          2.1264         50.0500        146.5682        142.7012          0.3272
  726.4950          2.1381         52.6200        144.5544        140.6861          0.3200
  726.6470          2.1275         54.6300        146.3824        142.5115          0.3266
  726.8000          2.1607         56.3500        140.6275        136.7554          0.3058
  726.9520          2.1308         54.4800        145.8124        141.9390          0.3245
  727.1040          2.1432         50.2500        143.6709        139.7947          0.3168
  727.2570          2.1688         46.8900        139.2281        135.3499          0.3007
  727.4090          2.1343         47.0100        145.2095        141.3312          0.3223
  727.5620          2.1468         47.4100        143.0409        139.1593          0.3145
  727.7140          2.1623         48.2100        140.3665        136.4821          0.3048
  727.8660          2.1141         48.2100        148.7021        144.8155          0.3349
  728.0190          2.1157         47.6000        148.4245        144.5347          0.3339
  728.1710          2.1589         47.6300        140.9476        137.0562          0.3069
  728.3240          2.1310         47.7000        145.7806        141.8889          0.3244
  728.4760          2.1487         50.1300        142.7195        138.8247          0.3133
  728.6280          2.1486         52.9100        142.7277        138.8321          0.3134
  728.7810          2.1488         51.9600        142.7014        138.8024          0.3133
  728.9330          2.1336         53.3000        145.3298        141.4299          0.3228
  729.0860          2.1444         54.1500        143.4655        139.5643          0.3160
  729.2380          2.1481         51.6200        142.8126        138.9075          0.3137
  729.3900          2.1387         48.5500        144.4508        140.5472          0.3196
  729.5430          2.1438         47.3600        143.5668        139.6606          0.3164
  729.6950          2.1538         47.6300        141.8336        137.9263          0.3101
  729.8480          2.1429         47.7000        143.7252        139.8156          0.3170
  730.0000          2.1520         45.5900        142.1383        138.2278          0.3112
  730.1520          2.1586         47.2000        140.9901        137.0739          0.3071
  730.3050          2.1584         49.4400        141.0418        137.1234          0.3073
  730.4570          2.1321         51.2900        145.5862        141.6647          0.3237
  730.6100          2.1327         48.5200        145.4810        141.5594          0.3233
  730.7620          2.1432         49.9400        143.6570        139.7331          0.3167
  730.9140          2.1284         48.9200        146.2240        142.3003          0.3260
  731.0670          2.1381         47.4800        144.5525        140.6264          0.3200
  731.2190          2.1597         48.5600        140.8140        136.8878          0.3065
  731.3720          2.1578         50.7800        141.1360        137.2049          0.3076
  731.5240          2.1699         49.5300        139.0486        135.1184          0.3001
  731.6760          2.1724         50.1000        138.6177        134.6850          0.2985
  731.8290          2.1617         51.6000        140.4669        136.5327          0.3052
  731.9810          2.1651         49.6100        139.8786        135.9434          0.3031
  732.1340          2.1571         51.3200        141.2560        137.3196          0.3081
  732.2860          2.1443         52.5700        143.4688        139.5287          0.3160
  732.4380          2.1489         51.6700        142.6829        138.7391          0.3132
  732.5910          2.1449         53.4100        143.3762        139.4318          0.3157
  732.7430          2.1369         54.3200        144.7643        140.8202          0.3207
  732.8960          2.1439         54.3100        143.5513        139.6039          0.3163
  733.0480          2.1473         53.2900        142.9626        139.0139          0.3142
  733.2000          2.1309         50.2900        145.7994        141.8503          0.3245
  733.3530          2.1356         50.9800        144.9741        141.0227          0.3215
  733.5050          2.1510         51.7000        142.3087        138.3555          0.3119
  733.6580          2.1503         52.5700        142.4278        138.4733          0.3123
  733.8100          2.1489         52.3800        142.6806        138.7244          0.3132
  733.9620          2.1456         51.0100        143.2537        139.2947          0.3153
  734.1150          2.1273         49.6000        146.4181        142.4569          0.3267
  734.2670          2.1108         50.3300        149.2801        145.3162          0.3370
  734.4200          2.1134         53.2900        148.8200        144.8558          0.3354
  734.5720          2.1272         55.8000        146.4420        142.4756          0.3268
  734.7240          2.1534         56.3700        141.9075        137.9376          0.3104
  734.8770          2.1648         55.0600        139.9319        135.9609          0.3033
  735.0290          2.1751         50.3100        138.1488        134.1750          0.2968
  735.1820          2.1709         45.6400        138.8760        134.9009          0.2995
  735.3340          2.1594         46.6400        140.8558        136.8805          0.3066
  735.4860          2.1515         47.2400        142.2333        138.2556          0.3116
  735.6390          2.1517         47.4900        142.1912        138.2112          0.3114
  735.7910          2.1397         48.1000        144.2746        140.2936          0.3190
  735.9440          2.1433         45.4100        143.6528        139.6707          0.3167
  736.0960          2.1304         46.7600        145.8897        141.9060          0.3248
  736.2480          2.1306         44.8400        145.8540        141.8691          0.3247
  736.4010          2.1302         45.4200        145.9075        141.9203          0.3248
  736.5530          2.1447         48.1000        143.3997        139.4102          0.3158
  736.7060          2.1694         49.5200        139.1344        135.1416          0.3004
  736.8580          2.1694         49.3900        139.1371        135.1435          0.3004
  737.0100          2.1654         51.6500        139.8213        135.8268          0.3029
  737.1630          2.1511         51.8800        142.2914        138.2949          0.3118
  737.3150          2.1557         52.2100        141.4996        137.5002          0.3089
  737.4680          2.1593         51.7500        140.8827        136.8831          0.3067
  737.6200          2.1537         50.5900        141.8467        137.8454          0.3102
  737.7720          2.1608         49.1400        140.6187        136.6136          0.3058
  737.9250          2.1503         48.1200        142.4359        138.4307          0.3123
  738.0770          2.1425         47.2600        143.7856        139.7792          0.3172
  738.2300          2.1354         47.4800        145.0193        141.0120          0.3216
  738.3820          2.1313         49.0200        145.7179        141.7052          0.3242
  738.5340          2.1299         47.1000        145.9600        141.9378          0.3250
  738.6870          2.1434         47.6900        143.6265        139.5896          0.3166
  738.8390          2.1289         49.4800        146.1437        142.0939          0.3257
