~VERSION INFORMATION
 VERS.                          2.0   : CWLS LOG ASCII STANDARD - VERSION 2.0
 WRAP.                          NO    : ONE LINE PER DEPTH STEP
#
~Well Information Section
#MNEM     .UNIT     DATA                DESCRIPTION
#-----    -----     --------            --------------
 STRT     .M        30.0000             : START DEPTH
 STOP     .M        1899.9708           : END DEPTH
 STEP     .M        0.0000              : INCREMENT DEPTH
 NULL     .         -999.2500           : NULL VALUE
 COMP     .                              :
 WELL     .         F03-04              : WELL NAME
 EKB      .M        30.0000             : KELLY BUSHING ELEVATION
 EGL      .M        0.0000              : GROUND LEVEL ELEVATION
 EPD      .M        0.0000              : PERMANENT DATUM ELEVATION
 FLD      .                              :
XWELL		.M		623256		: XWELL LOCATION
YWELL		.M		6082586		: YWELL LOCATION
 PROV     .                              :
 SRVC     .                              :
 PROV     .                              :
 DATE     .                              :
 API      .                              :
#
~Curve Information Section
#MNEM     .UNIT               Curve #DESCRIPTION
#-----    -----               ----   --------------
 DEPTH    .M                  : 1     Name = Domain Curve - Type = DEPTH
 RHOB     .g/cc               : 2     Name = Density_math - Type = Density
 GR       .API                : 3     Name = Gamma Ray_math - Type = Gamma Ray
 DT       .us/ft              : 4     Name = P-wave_1 - Type = P-wave
 DT       .us/ft              : 5     Name = P-wave_corr - Type = P-wave
 UNKNOWN  .fraction           : 6     Name = Porosity_math - Type = Porosity
~A (ASCII LOG DATA)
# ...
 1484.9856          2.0218         51.2500        164.6841        164.6827          0.3926
 1485.1379          2.0233         51.2500        164.4162        164.4149          0.3917
 1485.2904          2.0245         51.8500        164.2132        164.2118          0.3909
 1485.4427          2.0263         53.6500        163.9086        163.9073          0.3898
 1485.5952          2.0265         53.9500        163.8661        163.8647          0.3897
 1485.7476          2.0286         53.9500        163.5025        163.5012          0.3884
 1485.9000          2.0298         53.9500        163.2995        163.2981          0.3876
 1486.0524          2.0310         53.9500        163.0965        163.0951          0.3869
 1486.2048          2.0341         53.0500        162.5538        162.5524          0.3849
 1486.3572          2.0345         53.0500        162.4873        162.4859          0.3847
 1486.5096          2.0380         53.0500        161.8782        161.8768          0.3825
 1486.6620          2.0392         53.9500        161.6751        161.6738          0.3818
 1486.8145          2.0402         54.5500        161.4996        161.4983          0.3811
 1486.9668          2.0398         54.5500        161.5736        161.5722          0.3814
 1487.1191          2.0368         54.5500        162.0812        162.0798          0.3832
 1487.2716          2.0339         54.5500        162.5888        162.5875          0.3851
 1487.4240          2.0327         53.9500        162.7919        162.7905          0.3858
 1487.5764          2.0316         50.9500        162.9949        162.9935          0.3865
 1487.7288          2.0292         50.6500        163.4010        163.3996          0.3880
 1487.8812          2.0292         50.3500        163.4010        163.3996          0.3880
 1488.0336          2.0292         50.0500        163.4010        163.3996          0.3880
 1488.1860          2.0286         49.1500        163.5025        163.5012          0.3884
 1488.3384          2.0292         47.9500        163.4010        163.3996          0.3880
 1488.4908          2.0292         47.6500        163.4010        163.3996          0.3880
 1488.6432          2.0286         47.0500        163.5025        163.5012          0.3884
 1488.7957          2.0286         47.0500        163.5025        163.5012          0.3884
 1488.9480          2.0275         46.7500        163.7056        163.7042          0.3891
 1489.1003          2.0275         46.4500        163.7056        163.7042          0.3891
 1489.2528          2.0280         45.2500        163.6041        163.6027          0.3887
 1489.4052          2.0286         44.9500        163.5025        163.5012          0.3884
 1489.5576          2.0304         44.9500        163.1980        163.1966          0.3873
 1489.7100          2.0303         41.6500        163.2166        163.2152          0.3873
 1489.8624          2.0289         41.2275        163.4629        163.4615          0.3882
 1490.0148          2.0275         40.5907        163.7056        163.7042          0.3891
 1490.1672          2.0269         40.5907        163.8071        163.8058          0.3895
 1490.3196          2.0269         40.5907        163.8071        163.8058          0.3895
 1490.4720          2.0269         41.0500        163.8071        163.8058          0.3895
 1490.6244          2.0269         41.0500        163.8071        163.8058          0.3895
 1490.7769          2.0275         41.0500        163.7056        163.7042          0.3891
 1490.9292          2.0269         40.7500        163.8071        163.8058          0.3895
 1491.0815          2.0251         40.3736        164.1117        164.1103          0.3906
 1491.2340          2.0222         40.1500        164.6193        164.6179          0.3924
 1491.3864          2.0181         39.3078        165.3300        165.3286          0.3950
 1491.5388          2.0157         38.2160        165.7360        165.7347          0.3964
 1491.6912          2.0140         37.4500        166.0406        166.0392          0.3975
 1491.8436          2.0093         36.2500        166.8528        166.8515          0.4005
 1491.9960          2.0081         34.7500        167.0558        167.0545          0.4012
 1492.1484          2.0058         32.4972        167.4619        167.4606          0.4027
 1492.3008          2.0028         30.2500        167.9695        167.9682          0.4045
 1492.4532          1.9999         28.1500        168.4772        168.4758          0.4063
 1492.6056          1.9981         28.1500        168.7817        168.7804          0.4074
 1492.7581          1.9929         28.1500        169.6954        169.6941          0.4107
 1492.9104          1.9929         28.4901        169.6954        169.6941          0.4107
 1493.0627          1.9952         29.0500        169.2893        169.2880          0.4092
 1493.2152          1.9987         30.5500        168.6830        168.6817          0.4071
 1493.3676          2.0052         35.3500        167.5634        167.5621          0.4030
 1493.5200          2.0075         38.3500        167.1574        167.1560          0.4016
 1493.6724          2.0081         39.8500        167.0558        167.0545          0.4012
 1493.8248          2.0093         40.4500        166.8510        166.8496          0.4004
 1493.9772          2.0146         40.4500        165.9391        165.9377          0.3972
 1494.1296          2.0181         40.4500        165.3300        165.3286          0.3950
 1494.2820          2.0192         40.4500        165.1269        165.1255          0.3942
 1494.4344          2.0187         40.4500        165.2284        165.2271          0.3946
 1494.5868          2.0169         40.7500        165.5330        165.5316          0.3957
 1494.7393          2.0163         42.2500        165.6345        165.6331          0.3961
 1494.8916          2.0173         43.1500        165.4645        165.4632          0.3954
 1495.0439          2.0187         43.1500        165.2182        165.2169          0.3946
 1495.1964          2.0201         43.1500        164.9719        164.9706          0.3937
 1495.3488          2.0210         40.4500        164.8223        164.8210          0.3931
 1495.5012          2.0169         39.5500        165.5330        165.5316          0.3957
 1495.6536          2.0157         39.2500        165.7360        165.7347          0.3964
 1495.8060          2.0116         38.3500        166.4467        166.4454          0.3990
 1495.9584          2.0116         37.7500        166.4467        166.4454          0.3990
 1496.1108          2.0157         37.7500        165.7360        165.7347          0.3964
 1496.2632          2.0164         37.7500        165.6210        165.6197          0.3960
 1496.4156          2.0175         38.9500        165.4315        165.4301          0.3953
 1496.5680          2.0210         41.6500        164.8223        164.8210          0.3931
 1496.7205          2.0216         43.4500        164.7208        164.7194          0.3928
 1496.8728          2.0216         48.5500        164.7208        164.7194          0.3928
 1497.0251          2.0216         49.4500        164.7208        164.7194          0.3928
 1497.1776          2.0216         49.4500        164.7208        164.7194          0.3928
 1497.3300          2.0216         49.4500        164.7208        164.7194          0.3928
 1497.4824          2.0204         47.3500        164.9239        164.9225          0.3935
 1497.6348          2.0151         41.6500        165.8376        165.8362          0.3968
 1497.7872          2.0134         38.9500        166.1421        166.1408          0.3979
 1497.9396          2.0104         37.1500        166.6497        166.6484          0.3997
 1498.0920          2.0093         35.6500        166.8528        166.8515          0.4005
 1498.2444          2.0087         34.7500        166.9543        166.9530          0.4008
