~VERSION INFORMATION
 VERS.                          2.0   : CWLS LOG ASCII STANDARD - VERSION 2.0
 WRAP.                          NO    : ONE LINE PER DEPTH STEP
#
~Well Information Section
#MNEM     .UNIT     DATA                DESCRIPTION
#-----    -----     --------            --------------
 STRT     .M        30.0000             : START DEPTH
 STOP     .M        1899.9708           : END DEPTH
 STEP     .M        0.0000              : INCREMENT DEPTH
 NULL     .         -999.2500           : NULL VALUE
 COMP     .                              :
 WELL     .         F03-04              : WELL NAME
 EKB      .M        30.0000             : KELLY BUSHING ELEVATION
 EGL      .M        0.0000              : GROUND LEVEL ELEVATION
 EPD      .M        0.0000              : PERMANENT DATUM ELEVATION
 FLD      .                              :
XWELL		.M		623256		: XWELL LOCATION
YWELL		.M		6082586		: YWELL LOCATION
 PROV     .                              :
 SRVC     .                              :
 PROV     .                              :
 DATE     .                              :
 API      .                              :
#
~Curve Information Section
#MNEM     .UNIT               Curve #DESCRIPTION
#-----    -----               ----   --------------
 DEPTH    .M                  : 1     Name = Domain Curve - Type = DEPTH
 RHOB     .g/cc               : 2     Name = Density_math - Type = Density
 GR       .API                : 3     Name = Gamma Ray_math - Type = Gamma Ray
 DT       .us/ft              : 4     Name = P-wave_1 - Type = P-wave
 DT       .us/ft              : 5     Name = P-wave_corr - Type = P-wave
 UNKNOWN  .fraction           : 6     Name = Porosity_math - Type = Porosity
~A (ASCII LOG DATA)
# ...
  760.7808          2.1722         60.8500        138.6396        135.8610          0.2986
  760.9332          2.1732         60.8500        138.4683        135.6959          0.2980
  761.0856          2.1770         60.8500        137.8173        135.0524          0.2956
  761.2380          2.1770         60.8500        137.8173        135.0570          0.2956
  761.3904          2.1541         55.4500        141.7767        139.0225          0.3099
  761.5428          2.1523         52.1500        142.0973        139.3497          0.3111
  761.6952          2.1507         52.1500        142.3658        139.6242          0.3121
  761.8476          2.1492         46.4500        142.6344        139.8967          0.3130
  762.0000          2.1476         46.4500        142.9029        140.1739          0.3140
  762.1524          2.1465         45.8500        143.0965        140.3755          0.3147
  762.3048          2.1500         45.8500        142.4873        139.7717          0.3125
  762.4572          2.1512         45.8500        142.2843        139.5750          0.3118
  762.6096          2.1541         45.8500        141.7767        139.0741          0.3099
  762.7620          2.1541         46.4500        141.7767        139.0807          0.3099
  762.9144          2.1541         50.3500        141.7767        139.0874          0.3099
  763.0668          2.1664         58.4500        139.6447        136.9624          0.3022
  763.2192          2.1688         59.9500        139.2386        136.5645          0.3008
  763.3716          2.1699         60.5500        139.0355        136.3667          0.3000
  763.5240          2.1705         62.9352        138.9340        136.2695          0.2997
  763.6764          2.1723         64.7500        138.6294        135.9744          0.2986
  763.8288          2.1746         65.3500        138.2233        135.5756          0.2971
  763.9812          2.0955         65.3500        151.9289        149.2881          0.3466
  764.1336          2.0955         65.3500        151.9289        149.2952          0.3466
  764.2860          2.0867         62.6500        153.4518        150.8251          0.3521
  764.4384          2.1236         62.6500        147.0558        144.4360          0.3290
  764.5908          2.1242         62.6500        146.9543        144.3432          0.3286
  764.7432          2.1330         62.6500        145.4315        142.8261          0.3231
  764.8956          2.1336         62.6500        145.3300        142.7319          0.3228
  765.0480          2.1459         62.6500        143.1980        140.6050          0.3151
  765.2004          2.1600         48.5500        140.7614        138.1777          0.3063
  765.3528          2.1606         48.5500        140.6599        138.0840          0.3059
  765.5052          2.1739         48.5500        138.3577        135.7887          0.2976
  765.6576          2.1828         46.4500        136.8122        134.2520          0.2920
  765.8100          2.1828         46.4500        136.8122        134.2582          0.2920
  765.9624          2.1828         46.4500        136.8122        134.2655          0.2920
  766.1148          2.1828         46.4500        136.8122        134.2731          0.2920
  766.2672          2.1828         46.4500        136.8122        134.2805          0.2920
  766.4196          2.1828         46.4500        136.8122        134.2881          0.2920
  766.5720          2.1828         46.4500        136.8122        134.2957          0.2920
  766.7244          2.1828         46.4500        136.8122        134.3031          0.2920
  766.8768          2.1828         47.9500        136.8122        134.3098          0.2920
  767.0292          2.1828         48.2500        136.8122        134.3182          0.2920
  767.1816          2.1828         50.3500        136.8122        134.3260          0.2920
  767.3340          2.1828         50.3500        136.8122        134.3333          0.2920
  767.4864          2.1743         50.3500        138.2741        135.8031          0.2973
  767.6388          2.1743         50.3500        138.2741        135.8106          0.2973
  767.7912          2.1745         50.0500        138.2512        135.7953          0.2972
  767.9436          2.1746         49.1500        138.2326        135.7843          0.2971
  768.0960          2.1747         49.1500        138.2140        135.7751          0.2971
  768.2484          2.1748         49.1500        138.1954        135.7623          0.2970
  768.4008          2.1749         49.1500        138.1768        135.7518          0.2969
  768.5532          2.1750         49.4500        138.1582        135.7385          0.2969
  768.7056          2.1751         49.7500        138.1396        135.7299          0.2968
  768.8580          2.1752         50.0500        138.1210        135.7195          0.2967
  769.0104          2.1753         52.7500        138.1024        135.7079          0.2967
  769.1628          2.1754         53.0500        138.0914        135.7063          0.2966
  769.3152          2.1754         61.4500        138.0914        135.7122          0.2966
  769.4676          2.1654         61.4500        139.8274        137.4562          0.3029
  769.6200          2.1488         61.4500        142.6904        140.3268          0.3132
  769.7724          2.1353         61.4500        145.0254        142.6692          0.3217
  769.9248          2.1207         61.4500        147.5634        145.2155          0.3308
  770.0772          2.1207         61.4500        147.5634        145.2207          0.3308
  770.2296          2.1353         61.4500        145.0254        142.6924          0.3217
  770.3820          2.1353         61.4500        145.0254        142.7003          0.3217
  770.5344          2.1418         61.4500        143.9086        141.5923          0.3176
  770.6868          2.1453         61.4500        143.2995        140.9898          0.3154
  770.8392          2.1459         61.4500        143.1980        140.8959          0.3151
  770.9916          2.1711         62.0500        138.8325        136.5379          0.2993
  771.1440          2.1717         62.0500        138.7310        136.4437          0.2989
  771.2964          2.1812         62.3500        137.0905        134.8109          0.2930
  771.4488          2.1896         62.9500        135.6244        133.3526          0.2877
  771.6012          2.1907         62.9500        135.4416        133.1785          0.2871
  771.7536          2.1933         62.9500        134.9848        132.7255          0.2854
  771.9060          2.1933         63.2500        134.9848        132.7354          0.2854
  772.0584          2.1939         64.4500        134.8934        132.6517          0.2851
  772.2108          2.1944         66.5500        134.8020        132.5676          0.2848
  772.3632          2.1954         68.0500        134.6193        132.3924          0.2841
  772.5156          2.1960         68.0500        134.5279        132.3086          0.2838
  772.6680          2.1986         68.0500        134.0711        131.8590          0.2821
  772.8204          2.1997         65.0500        133.8883        131.6853          0.2815
  772.9728          2.2007         65.0500        133.7056        131.5085          0.2808
  773.1252          2.2012         65.0500        133.6142        131.4240          0.2805
  773.2776          2.2012         65.3500        133.6142        131.4290          0.2805
  773.4300          2.2018         65.3500        133.5228        131.3474          0.2801
  773.5824          2.2015         65.3500        133.5637        131.3958          0.2803
  773.7348          2.2012         65.3500        133.6142        131.4532          0.2805
  773.8872          2.1997         65.3500        133.8883        131.7344          0.2815
  774.0396          2.1923         65.9500        135.1675        133.0220          0.2861
