~VERSION INFORMATION
 VERS.                          2.0   : CWLS LOG ASCII STANDARD - VERSION 2.0
 WRAP.                          NO    : ONE LINE PER DEPTH STEP
#
~Well Information Section
#MNEM     .UNIT     DATA                DESCRIPTION
#-----    -----     --------            --------------
 STRT     .M        30.0000             : START DEPTH
 STOP     .M        1899.9708           : END DEPTH
 STEP     .M        0.0000              : INCREMENT DEPTH
 NULL     .         -999.2500           : NULL VALUE
 COMP     .                              :
 WELL     .         F03-04              : WELL NAME
 EKB      .M        30.0000             : KELLY BUSHING ELEVATION
 EGL      .M        0.0000              : GROUND LEVEL ELEVATION
 EPD      .M        0.0000              : PERMANENT DATUM ELEVATION
 FLD      .                              :
XWELL		.M		623256		: XWELL LOCATION
YWELL		.M		6082586		: YWELL LOCATION
 PROV     .                              :
 SRVC     .                              :
 PROV     .                              :
 DATE     .                              :
 API      .                              :
#
~Curve Information Section
#MNEM     .UNIT               Curve #DESCRIPTION
#-----    -----               ----   --------------
 DEPTH    .M                  : 1     Name = Domain Curve - Type = DEPTH
 RHOB     .g/cc               : 2     Name = Density_math - Type = Density
 GR       .API                : 3     Name = Gamma Ray_math - Type = Gamma Ray
 DT       .us/ft              : 4     Name = P-wave_1 - Type = P-wave
 DT       .us/ft              : 5     Name = P-wave_corr - Type = P-wave
 UNKNOWN  .fraction           : 6     Name = Porosity_math - Type = Porosity
~A (ASCII LOG DATA)
# ...
  388.4676          2.1295         30.8500        146.0383        146.0367          0.3253
  388.6200          2.1295         30.8500        146.0345        146.0329          0.3253
  388.7724          2.1295         31.1500        146.0307        146.0291          0.3253
  388.9248          2.1296         31.1500        146.0269        146.0253          0.3253
  389.0772          2.1296         30.8500        146.0231        146.0215          0.3253
  389.2296          2.1296         29.9500        146.0193        146.0176          0.3252
  389.3820          2.1296         29.0500        146.0155        146.0138          0.3252
  389.5344          2.1296         29.0500        146.0116        146.0100          0.3252
  389.6868          2.1297         29.0500        146.0078        146.0062          0.3252
  389.8392          2.1297         29.3986        146.0040        146.0024          0.3252
  389.9916          2.1297         30.8500        146.0002        145.9986          0.3252
  390.1440          2.1297         31.4500        145.9964        145.9948          0.3252
  390.2964          2.1298         32.6792        145.9926        145.9910          0.3252
  390.4488          2.1298         32.6792        145.9888        145.9872          0.3251
  390.6012          2.1298         32.6792        145.9850        145.9834          0.3251
  390.7536          2.1298         31.5916        145.9812        145.9795          0.3251
  390.9060          2.1298         30.8500        145.9774        145.9757          0.3251
  391.0584          2.1299         30.2500        145.9735        145.9719          0.3251
  391.2108          2.1299         30.2500        145.9697        145.9681          0.3251
  391.3632          2.1299         30.2500        145.9659        145.9643          0.3251
  391.5156          2.1299         32.5685        145.9621        145.9605          0.3250
  391.6680          2.1300         32.5685        145.9583        145.9567          0.3250
  391.8204          2.1300         32.5685        145.9545        145.9529          0.3250
  391.9728          2.1300         31.8434        145.9507        145.9491          0.3250
  392.1252          2.1300         31.1500        145.9469        145.9462          0.3250
  392.2776          2.1300         29.3500        145.9431        145.9424          0.3250
  392.4300          2.1301         29.3500        145.9393        145.9396          0.3250
  392.5824          2.1301         29.3500        145.9354        145.9368          0.3249
  392.7348          2.1301         29.6500        145.9316        145.9330          0.3249
  392.8872          2.1301         29.6500        145.9278        145.9312          0.3249
  393.0396          2.1302         29.7491        145.9240        145.9285          0.3249
  393.1920          2.1302         31.1500        145.9202        145.9257          0.3249
  393.3444          2.1302         31.1500        145.9164        145.9249          0.3249
  393.4968          2.1302         31.1500        145.9126        145.9214          0.3249
  393.6492          2.1302         30.2500        145.9088        145.9188          0.3248
  393.8016          2.1303         29.6500        145.9050        145.9181          0.3248
  393.9540          2.1303         28.4500        145.9012        145.9156          0.3248
  394.1064          2.1303         28.4500        145.8973        145.9140          0.3248
  394.2588          2.1303         28.4500        145.8935        145.9135          0.3248
  394.4112          2.1304         28.7500        145.8897        145.9121          0.3248
  394.5636          2.1304         29.6500        145.8859        145.9108          0.3248
  394.7160          2.1304         30.8500        145.8821        145.9096          0.3248
  394.8684          2.1304         30.8500        145.8783        145.9093          0.3247
  395.0208          2.1304         30.8500        145.8745        145.9072          0.3247
  395.1732          2.1305         30.8500        145.8707        145.9071          0.3247
  395.3256          2.1305         30.8500        145.8669        145.9071          0.3247
  395.4780          2.1305         30.5500        145.8631        145.9062          0.3247
  395.6304          2.1305         29.6500        145.8592        145.9063          0.3247
  395.7828          2.1305         29.6500        145.8554        145.9075          0.3247
  395.9352          2.1306         29.6500        145.8516        145.9068          0.3246
  396.0876          2.1306         29.6500        145.8478        145.9063          0.3246
  396.2400          2.1306         29.6500        145.8440        145.9077          0.3246
  396.3924          2.1306         29.3825        145.8402        145.9074          0.3246
  396.5448          2.1307         29.0500        145.8364        145.9090          0.3246
  396.6972          2.1307         29.0500        145.8326        145.9099          0.3246
  396.8496          2.1307         29.0500        145.8288        145.9108          0.3246
  397.0020          2.1307         29.0500        145.8250        145.9099          0.3245
  397.1544          2.1307         29.0500        145.8211        145.9120          0.3245
  397.3068          2.1308         29.0500        145.8173        145.9143          0.3245
  397.4592          2.1308         29.0500        145.8135        145.9147          0.3245
  397.6116          2.1308         29.0500        145.8097        145.9172          0.3245
  397.7640          2.1308         29.0500        145.8059        145.9179          0.3245
  397.9164          2.1309         29.9500        145.8021        145.9206          0.3245
  398.0688          2.1309         29.9500        145.7983        145.9216          0.3245
  398.2212          2.1309         29.9500        145.7945        145.9246          0.3244
  398.3736          2.1309         29.3500        145.7907        145.9268          0.3244
  398.5260          2.1309         29.3500        145.7868        145.9282          0.3244
  398.6784          2.1310         29.0500        145.7830        145.9307          0.3244
  398.8308          2.1310         29.0500        145.7792        145.9333          0.3244
  398.9832          2.1310         29.0500        145.7754        145.9361          0.3244
  399.1356          2.1310         28.0628        145.7716        145.9400          0.3244
  399.2880          2.1311         27.2500        145.7678        145.9422          0.3243
  399.4404          2.1311         27.2500        145.7640        145.9445          0.3243
  399.5928          2.1311         26.3500        145.7602        145.9488          0.3243
  399.7452          2.1311         26.3500        145.7564        145.9515          0.3243
  399.8976          2.1311         26.3500        145.7526        145.9553          0.3243
  400.0500          2.1312         26.5500        145.7487        145.9583          0.3243
  400.2024          2.1312         26.5500        145.7449        145.9623          0.3243
  400.3548          2.1312         28.1500        145.7411        145.9657          0.3242
  400.5072          2.1312         50.6500        145.7373        145.9692          0.3242
  400.6596          2.1313         50.9500        145.7335        145.9739          0.3242
  400.8120          2.1313         51.2500        145.7297        145.9778          0.3242
  400.9644          2.1313         51.5500        145.7259        145.9819          0.3242
  401.1168          2.1313         51.5500        145.7221        145.9861          0.3242
  401.2692          2.1313         51.5500        145.7183        145.9906          0.3242
  401.4216          2.1314         50.7613        145.7145        145.9953          0.3241
  401.5740          2.1314         49.5886        145.7106        145.9992          0.3241
  401.7264          2.1314         48.4159        145.7068        146.0052          0.3241
