~VERSION INFORMATION
 VERS.                          2.0   : CWLS LOG ASCII STANDARD - VERSION 2.0
 WRAP.                          NO    : ONE LINE PER DEPTH STEP
#
~Well Information Section
#MNEM     .UNIT     DATA                DESCRIPTION
#-----    -----     --------            --------------
 STRT     .M        30.0000             : START DEPTH
 STOP     .M        1899.9708           : END DEPTH
 STEP     .M        0.0000              : INCREMENT DEPTH
 NULL     .         -999.2500           : NULL VALUE
 COMP     .                              :
 WELL     .         F03-04              : WELL NAME
 EKB      .M        30.0000             : KELLY BUSHING ELEVATION
 EGL      .M        0.0000              : GROUND LEVEL ELEVATION
 EPD      .M        0.0000              : PERMANENT DATUM ELEVATION
 FLD      .                              :
XWELL		.M		623256		: XWELL LOCATION
YWELL		.M		6082586		: YWELL LOCATION
 PROV     .                              :
 SRVC     .                              :
 PROV     .                              :
 DATE     .                              :
 API      .                              :
#
~Curve Information Section
#MNEM     .UNIT               Curve #DESCRIPTION
#-----    -----               ----   --------------
 DEPTH    .M                  : 1     Name = Domain Curve - Type = DEPTH
 RHOB     .g/cc               : 2     Name = Density_math - Type = Density
 GR       .API                : 3     Name = Gamma Ray_math - Type = Gamma Ray
 DT       .us/ft              : 4     Name = P-wave_1 - Type = P-wave
 DT       .us/ft              : 5     Name = P-wave_corr - Type = P-wave
 UNKNOWN  .fraction           : 6     Name = Porosity_math - Type = Porosity
~A (ASCII LOG DATA)
# ...
  147.0660          2.0946         19.7500        152.0733        152.0717          0.3471
  147.2184          2.0947         19.7500        152.0695        152.0679          0.3471
  147.3708          2.0947         20.0500        152.0657        152.0641          0.3471
  147.5232          2.0947         20.0500        152.0619        152.0603          0.3471
  147.6756          2.0947         20.3500        152.0581        152.0565          0.3470
  147.8280          2.0947         20.3500        152.0543        152.0527          0.3470
  147.9804          2.0948         20.3500        152.0505        152.0489          0.3470
  148.1328          2.0948         20.6500        152.0467        152.0451          0.3470
  148.2852          2.0948         21.2500        152.0429        152.0413          0.3470
  148.4376          2.0948         21.2500        152.0391        152.0375          0.3470
  148.5900          2.0949         21.2500        152.0352        152.0336          0.3470
  148.7424          2.0949         20.9500        152.0314        152.0298          0.3470
  148.8948          2.0949         20.6500        152.0276        152.0260          0.3469
  149.0472          2.0949         20.6500        152.0238        152.0222          0.3469
  149.1996          2.0949         20.6500        152.0200        152.0184          0.3469
  149.3520          2.0950         20.6500        152.0162        152.0146          0.3469
  149.5044          2.0950         20.6500        152.0124        152.0108          0.3469
  149.6568          2.0950         20.6500        152.0086        152.0070          0.3469
  149.8092          2.0950         20.6500        152.0048        152.0032          0.3469
  149.9616          2.0951         22.1500        152.0010        151.9993          0.3468
  150.1140          2.0951         23.6500        151.9971        151.9955          0.3468
  150.2664          2.0951         24.1532        151.9933        151.9917          0.3468
  150.4188          2.0951         24.1532        151.9895        151.9879          0.3468
  150.5712          2.0951         23.6500        151.9857        151.9841          0.3468
  150.7236          2.0952         23.2647        151.9819        151.9803          0.3468
  150.8760          2.0952         22.3763        151.9781        151.9765          0.3468
  151.0284          2.0952         21.4878        151.9743        151.9727          0.3467
  151.1808          2.0952         20.5993        151.9705        151.9689          0.3467
  151.3332          2.0953         19.7108        151.9667        151.9651          0.3467
  151.4856          2.0953         19.1500        151.9629        151.9612          0.3467
  151.6380          2.0953         19.1500        151.9590        151.9574          0.3467
  151.7904          2.0953         19.1500        151.9552        151.9536          0.3467
  151.9428          2.0953         19.4500        151.9514        151.9498          0.3467
  152.0952          2.0954         20.3500        151.9476        151.9460          0.3466
  152.2476          2.0954         20.9500        151.9438        151.9422          0.3466
  152.4000          2.0954         20.9500        151.9400        151.9384          0.3466
  152.5524          2.0954         20.9500        151.9362        151.9346          0.3466
  152.7048          2.0955         18.8500        151.9324        151.9308          0.3466
  152.8572          2.0955         18.8500        151.9286        151.9270          0.3466
  153.0096          2.0955         18.8500        151.9248        151.9232          0.3466
  153.1620          2.0955         21.5500        151.9209        151.9193          0.3466
  153.3144          2.0955         23.6500        151.9171        151.9155          0.3465
  153.4668          2.0956         24.2500        151.9133        151.9117          0.3465
  153.6192          2.0956         26.0500        151.9095        151.9079          0.3465
  153.7716          2.0956         26.0500        151.9057        151.9041          0.3465
  153.9240          2.0956         26.0500        151.9019        151.9003          0.3465
  154.0764          2.0956         26.0500        151.8981        151.8965          0.3465
  154.2288          2.0957         26.0500        151.8943        151.8927          0.3465
  154.3812          2.0957         26.0500        151.8905        151.8889          0.3464
  154.5336          2.0957         26.0500        151.8867        151.8851          0.3464
  154.6860          2.0957         26.0500        151.8828        151.8812          0.3464
  154.8384          2.0958         26.0500        151.8790        151.8774          0.3464
  154.9908          2.0958         25.2451        151.8752        151.8736          0.3464
  155.1432          2.0958         24.6635        151.8714        151.8698          0.3464
  155.2956          2.0958         24.0820        151.8676        151.8660          0.3464
  155.4480          2.0958         23.5004        151.8638        151.8622          0.3463
  155.6004          2.0959         22.9189        151.8600        151.8584          0.3463
  155.7528          2.0959         22.3373        151.8562        151.8546          0.3463
  155.9052          2.0959         21.7558        151.8524        151.8508          0.3463
  156.0576          2.0959         21.7558        151.8486        151.8469          0.3463
  156.2100          2.0960         21.7558        151.8448        151.8431          0.3463
  156.3624          2.0960         23.2730        151.8409        151.8393          0.3463
  156.5148          2.0960         23.2730        151.8371        151.8355          0.3462
  156.6672          2.0960         23.2730        151.8333        151.8317          0.3462
  156.8196          2.0960         23.9500        151.8295        151.8279          0.3462
  156.9720          2.0961         23.3500        151.8257        151.8241          0.3462
  157.1244          2.0961         22.7500        151.8219        151.8203          0.3462
  157.2768          2.0961         22.7500        151.8181        151.8165          0.3462
  157.4292          2.0961         23.3500        151.8143        151.8127          0.3462
  157.5816          2.0962         23.3500        151.8105        151.8088          0.3462
  157.7340          2.0962         23.7868        151.8067        151.8050          0.3461
  157.8864          2.0962         24.5500        151.8028        151.8012          0.3461
  158.0388          2.0962         24.5500        151.7990        151.7974          0.3461
  158.1912          2.0962         24.5500        151.7952        151.7936          0.3461
  158.3436          2.0963         24.5500        151.7914        151.7898          0.3461
  158.4960          2.0963         23.3500        151.7876        151.7860          0.3461
  158.6484          2.0963         23.0500        151.7838        151.7822          0.3461
  158.8008          2.0963         23.0500        151.7800        151.7784          0.3460
  158.9532          2.0964         23.0500        151.7762        151.7746          0.3460
  159.1056          2.0964         23.9500        151.7724        151.7707          0.3460
  159.2580          2.0964         24.5500        151.7686        151.7670          0.3460
  159.4104          2.0964         26.3500        151.7647        151.7631          0.3460
  159.5628          2.0964         26.3500        151.7609        151.7593          0.3460
  159.7152          2.0965         26.3500        151.7571        151.7555          0.3460
  159.8676          2.0965         26.3500        151.7533        151.7517          0.3459
  160.0200          2.0965         26.3500        151.7495        151.7479          0.3459
  160.1724          2.0965         26.3500        151.7457        151.7441          0.3459
  160.3248          2.0966         26.3500        151.7419        151.7403          0.3459
