~VERSION INFORMATION
 VERS.                          2.0   : CWLS LOG ASCII STANDARD - VERSION 2.0
 WRAP.                          NO    : ONE LINE PER DEPTH STEP
#
~Well Information Section
#MNEM     .UNIT     DATA                DESCRIPTION
#-----    -----     --------            --------------
 STRT     .M        30.0270             : START DEPTH
 STOP     .M        2139.5481           : END DEPTH
 STEP     .M        0.0000              : INCREMENT DEPTH
 NULL     .         -999.2500           : NULL VALUE
 COMP     .                              :
 WELL     .         F03-02              : WELL NAME
 EKB      .M        30.0000             : KELLY BUSHING ELEVATION
 EGL      .M        0.0000              : GROUND LEVEL ELEVATION
 EPD      .M        0.0000              : PERMANENT DATUM ELEVATION
 FLD      .                              :
 XWELL	.M	619101			: XWELL LOCATION
 YWELL	.M	6089491			: YWELL LOCATION
 PROV     .                              :
 SRVC     .                              :
 PROV     .                              :
 DATE     .                              :
 API      .                              :
#
~Curve Information Section
#MNEM     .UNIT               Curve #DESCRIPTION
#-----    -----               ----   --------------
 DEPTH    .M                  : 1     Name = Domain Curve - Type = DEPTH
 RHOB     .g/cc               : 2     Name = Density_math 2 - Type = Density
 GR       .API                : 3     Name = GR_balanced - Type = Gamma Ray
 DT       .us/ft              : 4     Name = P-wave_1 - Type = P-wave
 DT       .us/ft              : 5     Name = P-wave_corr - Type = P-wave
 UNKNOWN  .fraction           : 6     Name = Porosity_math - Type = Porosity
~A (ASCII LOG DATA)
# ...
 1838.7100          2.4183          2.5700         74.2091         74.2136          0.1448
 1838.8621          2.4344          0.7000         72.7789         72.7841          0.1347
 1839.0150          2.4114          1.5800         70.2536         70.2591          0.1491
 1839.1670          2.3930          4.7800         70.6562         70.6610          0.1606
 1839.3199          2.3833          3.5600         74.4391         74.4430          0.1667
 1839.4720          2.4327          3.6800         76.9644         76.9678          0.1358
 1839.6240          2.4446          3.9700         76.7245         76.7277          0.1284
 1839.7770          2.4227          1.6900         74.9412         74.9439          0.1421
 1839.9290          2.4277          2.5000         71.4962         71.5004          0.1389
 1840.0820          2.4361          2.0300         70.8062         70.8108          0.1337
 1840.2340          2.4165          0.7400         72.1651         72.1703          0.1459
 1840.3860          2.3914          1.3900         71.8400         71.8459          0.1616
 1840.5389          2.3493          2.8700         70.9078         70.9139          0.1879
 1840.6910          2.3442          1.9900         71.9480         71.9538          0.1911
 1840.8440          2.3771         -0.3800         71.7852         71.7907          0.1706
 1840.9960          2.4275         -0.7700         70.4165         70.4217          0.1391
 1841.1479          2.4394          0.3000         68.6848         68.6913          0.1316
 1841.3010          2.4628          1.7300         67.8018         67.8067          0.1170
 1841.4530          2.4659          2.2100         69.4763         69.4808          0.1151
 1841.6060          2.4378          2.7800         70.5776         70.5829          0.1326
 1841.7581          2.4427          2.9500         69.5236         69.5312          0.1296
 1841.9100          2.4025          3.1600         71.3246         71.3326          0.1547
 1842.0630          2.4076          3.3300         71.4328         71.4393          0.1515
 1842.2150          2.3962          3.6200         71.4115         71.4162          0.1586
 1842.3680          2.4042          3.1700         73.0091         73.0131          0.1536
 1842.5200          2.3685          0.9000         72.2604         72.2651          0.1759
 1842.6720          2.3487          1.3600         75.3731         75.3804          0.1883
 1842.8250          2.3370          1.3100         77.5273         77.5337          0.1956
 1842.9771          2.3690          0.6800         75.9637         75.9687          0.1756
 1843.1300          2.3807          1.9000         75.5696         75.5747          0.1683
 1843.2820          2.3718          1.5100         75.4554         75.4607          0.1739
 1843.4340          2.3746         -0.3300         76.6318         76.6371          0.1721
 1843.5870          2.4096          1.4000         76.1005         76.1054          0.1502
 1843.7390          2.3992          1.4500         74.6100         74.6146          0.1568
 1843.8920          2.4080          0.9400         75.0143         75.0188          0.1513
 1844.0439          2.4340          1.1000         71.3343         71.3385          0.1350
 1844.1960          2.4328          3.6200         71.4388         71.4422          0.1357
 1844.3490          2.4355          3.3100         70.0877         70.0898          0.1341
 1844.5010          2.4119          2.7600         69.7938         69.7954          0.1488
 1844.6541          2.3925          0.6000         70.4651         70.4670          0.1609
 1844.8060          2.4044          2.1800         70.9534         70.9550          0.1535
 1844.9580          2.4394          1.8800         71.4242         71.4253          0.1316
 1845.1110          2.4530          1.4500         73.7366         73.7379          0.1231
 1845.2629          2.4435          1.2500         72.2736         72.2750          0.1291
 1845.4160          2.4626          1.7000         71.8796         71.8826          0.1171
 1845.5680          2.4538          1.7000         69.5948         69.6004          0.1226
 1845.7200          2.4521          1.7500         67.8068         67.8122          0.1237
 1845.8730          2.4507          1.8500         67.8672         67.8728          0.1246
 1846.0250          2.4684         -0.1900         68.5271         68.5330          0.1135
 1846.1780          2.4714          2.2400         66.7834         66.7894          0.1116
 1846.3300          2.4888          1.9800         66.4266         66.4322          0.1007
 1846.4821          2.4746          1.2100         67.5894         67.5951          0.1096
 1846.6350          2.4794          0.8200         66.8117         66.8157          0.1066
 1846.7870          2.4582          0.9000         67.3839         67.3861          0.1199
 1846.9399          2.4642          1.2100         67.0892         67.0897          0.1161
 1847.0920          2.4570          1.6700         66.1072         66.1066          0.1206
 1847.2440          2.4583          0.8700         65.3234         65.3226          0.1198
 1847.3970          2.4263         -0.0200         65.8652         65.8640          0.1398
 1847.5490          2.4280         -0.7400         66.9291         66.9292          0.1388
 1847.7020          2.4120         -0.6400         65.5527         65.5543          0.1488
 1847.8540          2.4546          1.5900         68.2495         68.2521          0.1221
 1848.0060          2.4591          1.5200         67.4005         67.4041          0.1193
 1848.1591          2.4394         -0.3400         67.4421         67.4457          0.1316
 1848.3110          2.4625          0.0800         69.7630         69.7666          0.1172
 1848.4640          2.4618          2.0900         68.5707         68.5742          0.1176
 1848.6160          2.4630          2.5700         67.7568         67.7587          0.1169
 1848.7679          2.4193          3.2100         68.9779         68.9782          0.1442
 1848.9210          2.4280          1.5000         70.0959         70.0959          0.1388
 1849.0730          2.4151          0.3200         71.4568         71.4578          0.1468
 1849.2260          2.4111          3.7600         70.0098         70.0125          0.1493
 1849.3781          2.4313          1.0000         70.5688         70.5727          0.1367
 1849.5300          2.4230          2.2600         69.1404         69.1446          0.1419
 1849.6830          2.4447          1.1700         68.6021         68.6057          0.1283
 1849.8350          2.4559         -0.6100         70.1013         70.1049          0.1213
 1849.9880          2.4400         -1.8000         69.3390         69.3433          0.1312
 1850.1400          2.4244          0.8100         69.9962         69.9998          0.1410
 1850.2920          2.4125          1.5500         69.2034         69.2055          0.1484
 1850.4449          2.4180          1.0400         70.3933         70.3949          0.1450
 1850.5970          2.4428         -0.1100         69.6388         69.6404          0.1295
 1850.7500          2.4237         -1.7700         69.3920         69.3935          0.1414
 1850.9020          2.4060         -0.0900         71.4603         71.4618          0.1525
 1851.0540          2.4085          0.7600         70.8856         70.8872          0.1509
 1851.2070          2.4008          3.8000         71.5573         71.5587          0.1558
 1851.3590          2.4076          4.7700         72.6528         72.6531          0.1515
 1851.5120          2.4294          2.3300         71.9128         71.9119          0.1379
 1851.6639          2.4539          2.3400         70.7892         70.7873          0.1226
 1851.8160          2.4505          0.3200         68.1194         68.1172          0.1247
 1851.9690          2.4446          1.4600         68.6740         68.6730          0.1284
