~VERSION INFORMATION
 VERS.                          2.0   : CWLS LOG ASCII STANDARD - VERSION 2.0
 WRAP.                          NO    : ONE LINE PER DEPTH STEP
#
~Well Information Section
#MNEM     .UNIT     DATA                DESCRIPTION
#-----    -----     --------            --------------
 STRT     .M        30.0270             : START DEPTH
 STOP     .M        2139.5481           : END DEPTH
 STEP     .M        0.0000              : INCREMENT DEPTH
 NULL     .         -999.2500           : NULL VALUE
 COMP     .                              :
 WELL     .         F03-02              : WELL NAME
 EKB      .M        30.0000             : KELLY BUSHING ELEVATION
 EGL      .M        0.0000              : GROUND LEVEL ELEVATION
 EPD      .M        0.0000              : PERMANENT DATUM ELEVATION
 FLD      .                              :
 XWELL	.M	619101			: XWELL LOCATION
 YWELL	.M	6089491			: YWELL LOCATION
 PROV     .                              :
 SRVC     .                              :
 PROV     .                              :
 DATE     .                              :
 API      .                              :
#
~Curve Information Section
#MNEM     .UNIT               Curve #DESCRIPTION
#-----    -----               ----   --------------
 DEPTH    .M                  : 1     Name = Domain Curve - Type = DEPTH
 RHOB     .g/cc               : 2     Name = Density_math 2 - Type = Density
 GR       .API                : 3     Name = GR_balanced - Type = Gamma Ray
 DT       .us/ft              : 4     Name = P-wave_1 - Type = P-wave
 DT       .us/ft              : 5     Name = P-wave_corr - Type = P-wave
 UNKNOWN  .fraction           : 6     Name = Porosity_math - Type = Porosity
~A (ASCII LOG DATA)
# ...
 1557.0750          2.0988         51.9800        151.3516        151.3671          0.3445
 1557.2271          2.1054         53.0000        150.2022        150.2186          0.3403
 1557.3800          2.1044         54.5900        150.3767        150.3936          0.3410
 1557.5320          2.1028         57.9900        150.6660        150.6830          0.3420
 1557.6840          2.1071         56.1900        149.9181        149.9347          0.3393
 1557.8370          2.1054         56.3500        150.2142        150.2307          0.3404
 1557.9890          2.0795         55.6800        154.6993        154.7165          0.3566
 1558.1420          2.0397         56.7000        161.5803        161.5979          0.3814
 1558.2939          2.0478         56.1500        160.1887        160.2061          0.3764
 1558.4460          2.0946         55.7200        152.0767        152.0940          0.3471
 1558.5990          2.1074         54.9300        149.8704        149.8877          0.3392
 1558.7510          2.1119         52.8300        149.0898        149.1078          0.3363
 1558.9041          2.1065         57.5400        150.0269        150.0465          0.3397
 1559.0560          2.1028         53.8100        150.6610        150.6828          0.3420
 1559.2080          2.0896         54.4500        152.9430        152.9657          0.3502
 1559.3610          2.0338         56.5000        162.6079        162.6289          0.3851
 1559.5129          2.0361         56.2300        162.2074        162.2281          0.3837
 1559.6660          2.0844         53.1900        153.8492        153.8705          0.3535
 1559.8180          2.0829         50.8500        154.0970        154.1186          0.3544
 1559.9700          2.0735         54.0600        155.7312        155.7531          0.3603
 1560.1230          2.0746         51.6500        155.5340        155.5550          0.3596
 1560.2750          2.0781         54.4400        154.9387        154.9589          0.3574
 1560.4280          2.0777         59.0300        155.0107        155.0296          0.3577
 1560.5800          2.0768         57.4800        155.1635        155.1812          0.3583
 1560.7321          2.0755         51.8400        155.3887        155.4065          0.3591
 1560.8850          2.0777         55.3600        155.0048        155.0222          0.3577
 1561.0370          2.0805         59.1800        154.5274        154.5440          0.3560
 1561.1899          2.0812         58.9400        154.4034        154.4203          0.3555
 1561.3420          2.0808         59.5900        154.4692        154.4864          0.3558
 1561.4940          2.0785         58.2500        154.8733        154.8901          0.3572
 1561.6470          2.0766         56.5700        155.1911        155.2075          0.3584
 1561.7990          2.0792         55.6100        154.7398        154.7561          0.3567
 1561.9520          2.0762         58.1600        155.2606        155.2769          0.3586
 1562.1040          2.0783         56.5500        154.9019        154.9176          0.3573
 1562.2560          2.0761         59.0300        155.2826        155.2981          0.3587
 1562.4091          2.0772         57.7000        155.0919        155.1073          0.3580
 1562.5610          2.0769         58.2300        155.1505        155.1662          0.3582
 1562.7140          2.0759         58.1000        155.3087        155.3261          0.3588
 1562.8660          2.0747         55.6500        155.5182        155.5359          0.3595
 1563.0179          2.0720         55.8800        155.9860        156.0027          0.3612
 1563.1710          2.0743         58.3800        155.5899        155.6059          0.3598
 1563.3230          2.0720         55.1900        155.9929        156.0087          0.3613
 1563.4760          2.0767         57.7000        155.1807        155.1958          0.3583
 1563.6281          2.0740         59.6000        155.6390        155.6542          0.3600
 1563.7800          2.0763         61.4500        155.2415        155.2574          0.3585
 1563.9330          2.0745         62.9400        155.5676        155.5832          0.3597
 1564.0850          2.0776         59.4000        155.0144        155.0305          0.3577
 1564.2380          2.0744         56.4000        155.5752        155.5921          0.3597
 1564.3900          2.0773         53.8700        155.0776        155.0952          0.3579
 1564.5420          2.0771         52.2400        155.1182        155.1360          0.3581
 1564.6949          2.0843         59.7600        153.8571        153.8750          0.3535
 1564.8470          2.0869         62.0300        153.4212        153.4388          0.3520
 1565.0000          2.0859         65.4800        153.5802        153.5982          0.3525
 1565.1520          2.0832         67.7500        154.0461        154.0639          0.3542
 1565.3040          2.0814         66.6100        154.3623        154.3795          0.3554
 1565.4570          2.0798         63.9500        154.6342        154.6513          0.3563
 1565.6090          2.0788         59.9000        154.8112        154.8280          0.3570
 1565.7620          2.0794         57.3100        154.7151        154.7317          0.3566
 1565.9139          2.0810         56.1700        154.4418        154.4589          0.3557
 1566.0660          2.0837         52.1300        153.9664        153.9836          0.3539
 1566.2190          2.0864         55.5300        153.4927        153.5098          0.3522
 1566.3710          2.0909         58.4700        152.7235        152.7402          0.3494
 1566.5240          2.0948         57.4200        152.0508        152.0672          0.3470
 1566.6760          2.0944         53.6400        152.1190        152.1349          0.3473
 1566.8280          2.0936         55.2000        152.2565        152.2720          0.3478
 1566.9810          2.0924         57.3900        152.4584        152.4731          0.3485
 1567.1331          2.0909         58.9500        152.7144        152.7281          0.3494
 1567.2860          2.0871         56.9600        153.3778        153.3901          0.3518
 1567.4380          2.0849         61.9600        153.7666        153.7784          0.3532
 1567.5900          2.0846         61.5000        153.8084        153.8216          0.3534
 1567.7430          2.0829         60.5200        154.1107        154.1250          0.3545
 1567.8950          2.0789         56.8800        154.7911        154.8064          0.3569
 1568.0480          2.0794         54.0400        154.7085        154.7247          0.3566
 1568.2000          2.0808         54.7000        154.4747        154.4916          0.3558
 1568.3521          2.0778         57.3700        154.9847        155.0014          0.3576
 1568.5050          2.0771         61.7800        155.1024        155.1187          0.3580
 1568.6570          2.0768         60.2100        155.1618        155.1770          0.3583
 1568.8101          2.0764         61.4000        155.2261        155.2413          0.3585
 1568.9620          2.0760         61.0400        155.2932        155.3101          0.3587
 1569.1140          2.0764         57.5700        155.2352        155.2556          0.3585
 1569.2670          2.0762         54.1600        155.2670        155.2901          0.3586
 1569.4189          2.0740         50.8400        155.6428        155.6668          0.3600
 1569.5720          2.0742         50.1800        155.6055        155.6302          0.3599
 1569.7240          2.0726         49.2000        155.8923        155.9153          0.3609
 1569.8760          2.0693         52.2500        156.4683        156.4879          0.3630
 1570.0291          2.0657         49.0800        157.0759        157.0932          0.3652
 1570.1810          2.0600         45.4100        158.0751        158.0918          0.3688
 1570.3340          2.0547         46.5300        158.9896        159.0066          0.3721
