~VERSION INFORMATION
 VERS.                          2.0   : CWLS LOG ASCII STANDARD - VERSION 2.0
 WRAP.                          NO    : ONE LINE PER DEPTH STEP
#
~Well Information Section
#MNEM     .UNIT     DATA                DESCRIPTION
#-----    -----     --------            --------------
 STRT     .M        30.0270             : START DEPTH
 STOP     .M        2139.5481           : END DEPTH
 STEP     .M        0.0000              : INCREMENT DEPTH
 NULL     .         -999.2500           : NULL VALUE
 COMP     .                              :
 WELL     .         F03-02              : WELL NAME
 EKB      .M        30.0000             : KELLY BUSHING ELEVATION
 EGL      .M        0.0000              : GROUND LEVEL ELEVATION
 EPD      .M        0.0000              : PERMANENT DATUM ELEVATION
 FLD      .                              :
 XWELL	.M	619101			: XWELL LOCATION
 YWELL	.M	6089491			: YWELL LOCATION
 PROV     .                              :
 SRVC     .                              :
 PROV     .                              :
 DATE     .                              :
 API      .                              :
#
~Curve Information Section
#MNEM     .UNIT               Curve #DESCRIPTION
#-----    -----               ----   --------------
 DEPTH    .M                  : 1     Name = Domain Curve - Type = DEPTH
 RHOB     .g/cc               : 2     Name = Density_math 2 - Type = Density
 GR       .API                : 3     Name = GR_balanced - Type = Gamma Ray
 DT       .us/ft              : 4     Name = P-wave_1 - Type = P-wave
 DT       .us/ft              : 5     Name = P-wave_corr - Type = P-wave
 UNKNOWN  .fraction           : 6     Name = Porosity_math - Type = Porosity
~A (ASCII LOG DATA)
# ...
 1007.2160          2.2094         66.6000        132.2063        128.5600          0.2754
 1007.3680          2.2162         62.9100        131.0211        127.3752          0.2711
 1007.5200          2.2105         63.0900        132.0190        128.3730          0.2747
 1007.6730          2.2186         64.1600        130.6165        126.9702          0.2696
 1007.8250          2.1977         62.2500        134.2264        130.5812          0.2827
 1007.9780          2.2015         66.1900        133.5773        129.9323          0.2803
 1008.1300          2.2150         64.7100        131.2365        127.5914          0.2719
 1008.2820          2.2217         65.4100        130.0691        126.4234          0.2677
 1008.4350          2.2363         68.1700        127.5503        123.9040          0.2586
 1008.5870          2.2318         70.4500        128.3312        124.6858          0.2614
 1008.7400          2.2196         66.3900        130.4400        126.7953          0.2690
 1008.8920          2.2288         66.5000        128.8505        125.2069          0.2633
 1009.0440          2.2245         69.6500        129.5962        125.9528          0.2660
 1009.1970          2.2330         71.2900        128.1136        124.4722          0.2606
 1009.3490          2.2381         67.4100        127.2257        123.5840          0.2574
 1009.5020          2.2283         68.7200        128.9289        125.2866          0.2636
 1009.6540          2.2396         73.2700        126.9799        123.3376          0.2565
 1009.8060          2.2309         75.0100        128.4779        124.8343          0.2619
 1009.9590          2.2195         71.7700        130.4599        126.8152          0.2691
 1010.1110          2.2234         63.7200        129.7802        126.1372          0.2666
 1010.2640          2.2294         63.7200        128.7348        125.0917          0.2629
 1010.4160          2.2193         63.6400        130.4837        126.8405          0.2692
 1010.5680          2.2270         63.1700        129.1582        125.5160          0.2644
 1010.7210          2.2265         60.4800        129.2340        125.5927          0.2647
 1010.8730          2.2194         62.1600        130.4659        126.8244          0.2691
 1011.0260          2.2361         67.3600        127.5842        123.9419          0.2587
 1011.1780          2.2276         69.4100        129.0528        125.4111          0.2640
 1011.3300          2.2328         65.4100        128.1501        124.5084          0.2607
 1011.4830          2.2375         66.5400        127.3319        123.6907          0.2578
 1011.6350          2.2273         64.6800        129.1106        125.4692          0.2642
 1011.7880          2.2342         66.8500        127.9143        124.2739          0.2599
 1011.9400          2.2445         65.4600        126.1191        122.4796          0.2534
 1012.0920          2.2543         63.5700        124.4317        120.7907          0.2473
 1012.2450          2.2516         61.8200        124.8987        121.2589          0.2490
 1012.3970          2.2479         63.6800        125.5436        121.9038          0.2513
 1012.5500          2.2454         67.3800        125.9654        122.3254          0.2529
 1012.7020          2.2324         64.9300        128.2282        124.5891          0.2610
 1012.8540          2.2403         66.1400        126.8577        123.2189          0.2561
 1013.0070          2.2348         67.4600        127.8105        124.1734          0.2595
 1013.1590          2.2290         70.9900        128.8077        125.1701          0.2631
 1013.3120          2.2359         72.1900        127.6127        123.9764          0.2588
 1013.4640          2.2304         67.9300        128.5591        124.9233          0.2622
 1013.6160          2.2458         68.0500        125.8935        122.2573          0.2526
 1013.7690          2.2575         64.6000        123.8690        120.2342          0.2453
 1013.9210          2.2476         62.9300        125.5865        121.9511          0.2515
 1014.0740          2.2560         65.5700        124.1370        120.5021          0.2463
 1014.2260          2.2556         64.6800        124.2112        120.5762          0.2465
 1014.3780          2.2441         64.6800        126.1937        122.5568          0.2537
 1014.5310          2.2341         66.7700        127.9294        124.2935          0.2599
 1014.6830          2.2132         67.8300        131.5536        127.9171          0.2730
 1014.8360          2.2135         70.4700        131.4989        127.8627          0.2728
 1014.9880          2.2150         71.9800        131.2305        127.5952          0.2719
 1015.1400          2.2190         71.4400        130.5491        126.9139          0.2694
 1015.2930          2.2388         72.5700        127.1072        123.4730          0.2570
 1015.4450          2.2386         67.0700        127.1498        123.5147          0.2571
 1015.5980          2.2106         70.2500        131.9996        128.3662          0.2746
 1015.7500          2.2146         73.9400        131.3066        127.6727          0.2721
 1015.9020          2.2220         77.0000        130.0298        126.3958          0.2675
 1016.0550          2.2326         76.3500        128.1866        124.5520          0.2609
 1016.2070          2.2363         72.9400        127.5474        123.9135          0.2586
 1016.3600          2.2319         77.0900        128.3130        124.6787          0.2613
 1016.5120          2.2033         79.7700        133.2563        129.6206          0.2792
 1016.6640          2.2044         77.5400        133.0647        129.4301          0.2785
 1016.8170          2.2183         75.8900        130.6601        127.0258          0.2698
 1016.9690          2.2253         72.9000        129.4518        125.8188          0.2654
 1017.1220          2.2299         70.9300        128.6511        125.0184          0.2626
 1017.2740          2.2274         74.2700        129.0867        125.4554          0.2641
 1017.4260          2.2085         78.8100        132.3525        128.7209          0.2759
 1017.5790          2.2196         82.5800        130.4323        126.8000          0.2690
 1017.7310          2.2140         84.2500        131.4120        127.7804          0.2725
 1017.8840          2.2213         85.7600        130.1393        126.5075          0.2679
 1018.0360          2.2347         84.7700        127.8241        124.1932          0.2596
 1018.1880          2.2345         79.5500        127.8524        124.2223          0.2597
 1018.3410          2.2180         80.8500        130.7095        127.0788          0.2700
 1018.4930          2.2219         79.0600        130.0333        126.4035          0.2675
 1018.6460          2.2317         84.9900        128.3501        124.7188          0.2615
 1018.7980          2.2253         86.0600        129.4541        125.8245          0.2655
 1018.9500          2.2347         81.0000        127.8163        124.1864          0.2595
 1019.1030          2.2433         83.6200        126.3362        122.7073          0.2542
 1019.2550          2.2371         84.2700        127.4009        123.7725          0.2580
 1019.4080          2.2295         80.4800        128.7217        125.0953          0.2628
 1019.5600          2.2226         78.9600        129.9198        126.2936          0.2671
 1019.7120          2.2094         79.5700        132.1997        128.5711          0.2754
 1019.8650          2.2096         80.7100        132.1660        128.5391          0.2752
 1020.0170          2.2245         80.5200        129.5971        125.9709          0.2660
 1020.1700          2.2237         80.6400        129.7192        126.0939          0.2664
 1020.3220          2.2183         74.2400        130.6707        127.0449          0.2698
 1020.4740          2.2271         74.7400        129.1408        125.5152          0.2643
