~VERSION INFORMATION
 VERS.                          2.0   : CWLS LOG ASCII STANDARD - VERSION 2.0
 WRAP.                          NO    : ONE LINE PER DEPTH STEP
#
~Well Information Section
#MNEM     .UNIT     DATA                DESCRIPTION
#-----    -----     --------            --------------
 STRT     .M        29.2608             : START DEPTH
 STOP     .M        1699.8696           : END DEPTH
 STEP     .M        0.0000              : INCREMENT DEPTH
 NULL     .         -999.2500           : NULL VALUE
 COMP     .                              :
 WELL     .         F06-01              : WELL NAME
 EKB      .M        29.1400             : KELLY BUSHING ELEVATION
 EGL      .M        0.0000              : GROUND LEVEL ELEVATION
 EPD      .M        0.0000              : PERMANENT DATUM ELEVATION
 FLD      .                              :
 XWELL	.M	    607903			: XWELL LOCATION
YWELL		.M	    6077213		: YWELL LOCATION
 PROV     .                              :
 SRVC     .                              :
 PROV     .                              :
 DATE     .                              :
 API      .                              :
#
~Curve Information Section
#MNEM     .UNIT               Curve #DESCRIPTION
#-----    -----               ----   --------------
 DEPTH    .M                  : 1     Name = Domain Curve - Type = DEPTH
 RHOB     .g/cc               : 2     Name = Density_fromDT - Type = Density
 GR       .API                : 3     Name = GR_balanced - Type = Gamma Ray
 DT       .us/ft              : 4     Name = P-wave_1 - Type = P-wave
 DT       .us/ft              : 5     Name = P-wave_corr - Type = P-wave
 UNKNOWN  .fraction           : 6     Name = Porosity_math - Type = Porosity
~A (ASCII LOG DATA)
# ...
  149.9616          2.0594         26.9002        158.1796        156.3502          0.3691
  150.1140          2.0594         22.0480        158.1773        156.3462          0.3691
  150.2664          2.0594         25.6872        158.1750        156.3439          0.3691
  150.4188          2.0594         23.5643        158.1727        156.3413          0.3691
  150.5712          2.0594         22.6545        158.1704        156.3372          0.3691
  150.7236          2.0594         22.0480        158.1682        156.3349          0.3691
  150.8760          2.0594         20.5316        158.1659        156.3324          0.3691
  151.0284          2.0595         20.3557        158.1636        156.3279          0.3691
  151.1808          2.0595         20.3180        158.1613        156.3256          0.3691
  151.3332          2.0595         20.6114        158.1590        156.3213          0.3691
  151.4856          2.0595         22.3512        158.1567        156.3205          0.3691
  151.6380          2.0595         24.4741        158.1544        156.3164          0.3691
  151.7904          2.0595         25.6872        158.1521        156.3138          0.3690
  151.9428          2.0595         27.6411        158.1499        156.3111          0.3690
  152.0952          2.0596         28.6191        158.1476        156.3087          0.3690
  152.2476          2.0596         27.8100        158.1453        156.3043          0.3690
  152.4000          2.0596         19.0153        158.1430        156.3035          0.3690
  152.5524          2.0596         19.6218        158.1407        156.2973          0.3690
  152.7048          2.0596         17.5784        158.1384        156.2965          0.3690
  152.8572          2.0596         15.0112        158.1361        156.2937          0.3690
  153.0096          2.0596         13.5565        158.1339        156.2913          0.3690
  153.1620          2.0596         14.7696        158.1316        156.2867          0.3690
  153.3144          2.0597         19.6218        158.1293        156.2841          0.3690
  153.4668          2.0597         22.6545        158.1270        156.2812          0.3690
  153.6192          2.0597         22.3512        158.1247        156.2787          0.3689
  153.7716          2.0597         19.9251        158.1224        156.2760          0.3689
  153.9240          2.0597         19.3186        158.1201        156.2731          0.3689
  154.0764          2.0597         19.0153        158.1179        156.2687          0.3689
  154.2288          2.0597         19.6218        158.1156        156.2659          0.3689
  154.3812          2.0598         19.0855        158.1133        156.2629          0.3689
  154.5336          2.0598         19.6968        158.1110        156.2621          0.3689
  154.6860          2.0598         20.9192        158.1087        156.2575          0.3689
  154.8384          2.0598         22.1417        158.1064        156.2545          0.3689
  154.9908          2.0598         23.2610        158.1041        156.2518          0.3689
  155.1432          2.0598         21.7447        158.1019        156.2489          0.3689
  155.2956          2.0598         24.4741        158.0996        156.2459          0.3689
  155.4480          2.0598         22.3512        158.0973        156.2432          0.3688
  155.6004          2.0599         17.8022        158.0950        156.2403          0.3688
  155.7528          2.0599         16.5892        158.0927        156.2355          0.3688
  155.9052          2.0599         18.4088        158.0904        156.2342          0.3688
  156.0576          2.0599         21.1382        158.0881        156.2315          0.3688
  156.2100          2.0599         23.5643        158.0858        156.2285          0.3688
  156.3624          2.0599         22.9578        158.0836        156.2253          0.3688
  156.5148          2.0599         19.3186        158.0813        156.2206          0.3688
  156.6672          2.0599         20.2284        158.0790        156.2214          0.3688
  156.8196          2.0600         21.4414        158.0767        156.2163          0.3688
  156.9720          2.0600         22.1900        158.0744        156.2134          0.3688
  157.1244          2.0600         23.2610        158.0721        156.2104          0.3688
  157.2768          2.0600         25.6663        158.0699        156.2071          0.3687
  157.4292          2.0600         28.4166        158.0676        156.2061          0.3687
  157.5816          2.0600         30.2362        158.0653        156.2011          0.3687
  157.7340          2.0600         29.5642        158.0630        156.1997          0.3687
  157.8864          2.0601         24.4741        158.0607        156.1948          0.3687
  158.0388          2.0601         17.1957        158.0584        156.1936          0.3687
  158.1912          2.0601         14.4663        158.0561        156.1902          0.3687
  158.3436          2.0601         15.3761        158.0538        156.1853          0.3687
  158.4960          2.0601         18.4088        158.0516        156.1840          0.3687
  158.6484          2.0601         22.9578        158.0493        156.1807          0.3687
  158.8008          2.0601         25.9904        158.0470        156.1792          0.3687
  158.9532          2.0601         26.7618        158.0447        156.1743          0.3687
  159.1056          2.0602         23.2610        158.0424        156.1729          0.3686
  159.2580          2.0602         20.2284        158.0401        156.1676          0.3686
  159.4104          2.0602         17.4990        158.0378        156.1663          0.3686
  159.5628          2.0602         18.1055        158.0356        156.1630          0.3686
  159.7152          2.0602         19.3186        158.0333        156.1614          0.3686
  159.8676          2.0602         19.0153        158.0310        156.1582          0.3686
  160.0200          2.0602         19.3186        158.0287        156.1530          0.3686
  160.1724          2.0603         20.4267        158.0264        156.1532          0.3686
  160.3248          2.0603         21.5269        158.0241        156.1481          0.3686
  160.4772          2.0603         22.6271        158.0218        156.1465          0.3686
  160.6296          2.0603         23.8676        158.0196        156.1411          0.3686
  160.7820          2.0603         19.0153        158.0173        156.1397          0.3686
  160.9344          2.0603         16.8924        158.0150        156.1381          0.3686
  161.0868          2.0603         18.4088        158.0127        156.1328          0.3685
  161.2392          2.0603         16.2859        158.0104        156.1310          0.3685
  161.3916          2.0604         16.8924        158.0081        156.1277          0.3685
  161.5440          2.0604         17.1957        158.0058        156.1261          0.3685
  161.6964          2.0604         24.4741        158.0036        156.1223          0.3685
  161.8488          2.0604         26.2937        158.0013        156.1190          0.3685
  162.0012          2.0604         26.7362        157.9990        156.1154          0.3685
  162.1536          2.0604         26.4268        157.9967        156.1135          0.3685
  162.3060          2.0604         27.2035        157.9944        156.1120          0.3685
  162.4584          2.0605         27.8100        157.9921        156.1065          0.3685
  162.6108          2.0605         26.2937        157.9898        156.1046          0.3685
  162.7632          2.0605         25.9067        157.9875        156.1011          0.3685
  162.9156          2.0605         25.5400        157.9853        156.0974          0.3684
  163.0680          2.0605         25.0806        157.9830        156.0954          0.3684
  163.2204          2.0605         21.7447        157.9807        156.0938          0.3684
