~VERSION INFORMATION
 VERS.                          2.0   : CWLS LOG ASCII STANDARD - VERSION 2.0
 WRAP.                          NO    : ONE LINE PER DEPTH STEP
#
~Well Information Section
#MNEM     .UNIT     DATA                DESCRIPTION
#-----    -----     --------            --------------
 STRT     .M        29.2608             : START DEPTH
 STOP     .M        1699.8696           : END DEPTH
 STEP     .M        0.0000              : INCREMENT DEPTH
 NULL     .         -999.2500           : NULL VALUE
 COMP     .                              :
 WELL     .         F06-01              : WELL NAME
 EKB      .M        29.1400             : KELLY BUSHING ELEVATION
 EGL      .M        0.0000              : GROUND LEVEL ELEVATION
 EPD      .M        0.0000              : PERMANENT DATUM ELEVATION
 FLD      .                              :
 XWELL	.M	    607903			: XWELL LOCATION
YWELL		.M	    6077213		: YWELL LOCATION
 PROV     .                              :
 SRVC     .                              :
 PROV     .                              :
 DATE     .                              :
 API      .                              :
#
~Curve Information Section
#MNEM     .UNIT               Curve #DESCRIPTION
#-----    -----               ----   --------------
 DEPTH    .M                  : 1     Name = Domain Curve - Type = DEPTH
 RHOB     .g/cc               : 2     Name = Density_fromDT - Type = Density
 GR       .API                : 3     Name = GR_balanced - Type = Gamma Ray
 DT       .us/ft              : 4     Name = P-wave_1 - Type = P-wave
 DT       .us/ft              : 5     Name = P-wave_corr - Type = P-wave
 UNKNOWN  .fraction           : 6     Name = Porosity_math - Type = Porosity
~A (ASCII LOG DATA)
# ...
  747.6744          2.1270         69.5851        146.4741        164.5450          0.3269
  747.8268          2.1414         69.1301        143.9831        162.0667          0.3179
  747.9792          2.1811         67.3106        137.1116        155.2305          0.2931
  748.1316          2.1868         64.1263        136.1155        154.2411          0.2895
  748.2840          2.1822         69.1301        136.9124        155.0590          0.2924
  748.4364          2.1799         75.9537        137.3108        155.4718          0.2938
  748.5888          2.1776         78.6831        137.7092        155.8955          0.2953
  748.7412          2.1695         78.6831        139.1036        157.3049          0.3003
  748.8936          2.1684         78.6831        139.3028        157.5236          0.3010
  749.0460          2.1626         78.6831        140.2988        158.5354          0.3046
  749.1984          2.1580         75.9537        141.0956        159.3560          0.3075
  749.3508          2.1511         70.9498        142.2908        160.5703          0.3118
  749.5032          2.1511         70.9498        142.2908        160.5863          0.3118
  749.6556          2.1488         70.9498        142.6892        161.0062          0.3132
  749.8080          2.1465         66.4008        143.0876        161.4217          0.3147
  749.9604          2.1454         66.4008        143.2868        161.6522          0.3154
  750.1128          2.1419         69.0711        143.8845        162.2572          0.3175
  750.2652          2.1419         68.1078        143.8845        162.2781          0.3175
  750.4176          2.1419         67.1445        143.8845        162.2971          0.3175
  750.5700          2.1419         66.8557        143.8845        162.3175          0.3175
  750.7224          2.1396         65.9459        144.2829        162.7348          0.3190
  750.8748          2.1362         64.1263        144.8805        163.3561          0.3211
  751.0272          2.1339         64.5811        145.2789        163.7702          0.3226
  751.1796          2.1339         64.1263        145.2789        163.7901          0.3226
  751.3320          2.1362         70.0399        144.8805        163.4103          0.3211
  751.4844          2.1488         69.1301        142.6892        161.2428          0.3132
  751.6368          2.1488         65.4910        142.6892        161.2570          0.3132
  751.7892          2.1488         63.6713        142.6892        161.2858          0.3132
  751.9416          2.1488         65.4910        142.6892        161.3120          0.3132
  752.0940          2.1488         67.3106        142.6892        161.3164          0.3132
  752.2464          2.1442         67.7654        143.4861        162.1387          0.3161
  752.3988          2.1419         69.5851        143.8845        162.5553          0.3175
  752.5512          2.1396         70.9498        144.2829        162.9773          0.3190
  752.7036          2.1396         69.1301        144.2829        162.9930          0.3190
  752.8560          2.1396         65.0360        144.2829        163.0143          0.3190
  753.0084          2.1442         60.9419        143.4861        162.2374          0.3161
  753.1608          2.1442         62.3066        143.4861        162.2587          0.3161
  753.3132          2.1442         65.4910        143.4861        162.2800          0.3161
  753.4656          2.1442         68.2203        143.4861        162.2966          0.3161
  753.6180          2.1442         67.3106        143.4861        162.3221          0.3161
  753.7704          2.1419         63.2164        143.8845        162.7383          0.3175
  753.9228          2.1419         60.0321        143.8845        162.7658          0.3175
  754.0752          2.1488         62.3066        142.6892        161.5837          0.3132
  754.2276          2.1488         70.0399        142.6892        161.6061          0.3132
  754.3800          2.1454         72.7694        143.2868        162.2218          0.3154
  754.5324          2.1431         72.7694        143.6853        162.6417          0.3168
  754.6848          2.1396         68.6752        144.2829        163.2580          0.3190
  754.8372          2.1339         68.2203        145.2789        164.2773          0.3226
  754.9896          2.1316         73.6792        145.6773        164.6973          0.3240
  755.1420          2.1316         76.4086        145.6773        164.7170          0.3240
  755.2944          2.1316         75.5300        145.6773        164.7376          0.3240
  755.4468          2.1339         73.6792        145.2789        164.3587          0.3226
  755.5992          2.1362         69.5851        144.8805        163.9829          0.3211
  755.7516          2.1362         67.3106        144.8805        164.0140          0.3211
  755.9040          2.1339         66.8557        145.2789        164.4191          0.3226
  756.0564          2.1339         63.6713        145.2789        164.4498          0.3226
  756.2088          2.1316         63.2164        145.6773        164.8634          0.3240
  756.3612          2.1316         62.7615        145.6773        164.8851          0.3240
  756.5136          2.1316         62.7615        145.6773        164.9031          0.3240
  756.6660          2.1327         64.1263        145.4781        164.7257          0.3233
  756.8184          2.1385         67.7654        144.4821        163.7520          0.3197
  756.9708          2.1442         68.6752        143.4861        162.7764          0.3161
  757.1232          2.1534         65.9459        141.8924        161.2051          0.3104
  757.2756          2.1580         65.0360        141.0956        160.4313          0.3075
  757.4280          2.1603         64.1263        140.6972        160.0494          0.3060
  757.5804          2.1672         62.3066        139.5020        158.8737          0.3017
  757.7328          2.1730         61.3968        138.5060        157.9182          0.2981
  757.8852          2.1776         60.0321        137.7092        157.1262          0.2953
  758.0376          2.1822         60.0321        136.9124        156.3515          0.2924
  758.1900          2.1776         60.9419        137.7092        157.1737          0.2953
  758.3424          2.1776         58.2125        137.7092        157.1902          0.2953
  758.4948          2.1718         54.5733        138.7052        158.2108          0.2988
  758.6472          2.1672         45.0204        139.5020        159.0265          0.3017
  758.7996          2.1626         47.7498        140.2988        159.8499          0.3046
  758.9520          2.1626         56.8478        140.2988        159.8633          0.3046
  759.1044          2.1626         61.3968        140.2988        159.8924          0.3046
  759.2568          2.1672         60.4870        139.5020        159.1153          0.3017
  759.4092          2.1684         58.2125        139.3028        158.9343          0.3010
  759.5616          2.1707         56.3929        138.9044        158.5626          0.2996
  759.7140          2.1730         59.1223        138.5060        158.1967          0.2981
  759.8664          2.1707         58.2125        138.9044        158.6024          0.2996
  760.0188          2.1684         60.4870        139.3028        159.0234          0.3010
  760.1712          2.1649         55.9380        139.9004        159.6441          0.3032
  760.3236          2.1603         57.6834        140.6972        160.4636          0.3060
  760.4760          2.1580         60.9419        141.0956        160.8829          0.3075
  760.6284          2.1557         61.8517        141.4940        161.3032          0.3089
  760.7808          2.1557         61.8517        141.4940        161.3209          0.3089
  760.9332          2.1534         61.3968        141.8924        161.7431          0.3104
