~VERSION INFORMATION
 VERS.                          2.0   : CWLS LOG ASCII STANDARD - VERSION 2.0
 WRAP.                          NO    : ONE LINE PER DEPTH STEP
#
~Well Information Section
#MNEM     .UNIT     DATA                DESCRIPTION
#-----    -----     --------            --------------
 STRT     .M        29.2608             : START DEPTH
 STOP     .M        1699.8696           : END DEPTH
 STEP     .M        0.0000              : INCREMENT DEPTH
 NULL     .         -999.2500           : NULL VALUE
 COMP     .                              :
 WELL     .         F06-01              : WELL NAME
 EKB      .M        29.1400             : KELLY BUSHING ELEVATION
 EGL      .M        0.0000              : GROUND LEVEL ELEVATION
 EPD      .M        0.0000              : PERMANENT DATUM ELEVATION
 FLD      .                              :
 XWELL	.M	    607903			: XWELL LOCATION
YWELL		.M	    6077213		: YWELL LOCATION
 PROV     .                              :
 SRVC     .                              :
 PROV     .                              :
 DATE     .                              :
 API      .                              :
#
~Curve Information Section
#MNEM     .UNIT               Curve #DESCRIPTION
#-----    -----               ----   --------------
 DEPTH    .M                  : 1     Name = Domain Curve - Type = DEPTH
 RHOB     .g/cc               : 2     Name = Density_fromDT - Type = Density
 GR       .API                : 3     Name = GR_balanced - Type = Gamma Ray
 DT       .us/ft              : 4     Name = P-wave_1 - Type = P-wave
 DT       .us/ft              : 5     Name = P-wave_corr - Type = P-wave
 UNKNOWN  .fraction           : 6     Name = Porosity_math - Type = Porosity
~A (ASCII LOG DATA)
# ...
  347.1672       -999.2500       -999.2500        155.2215       -999.2500       -999.2500
  347.1672          2.0765         28.2432       -999.2500        153.0791          0.3585
  347.3196       -999.2500       -999.2500        155.2192       -999.2500       -999.2500
  347.3196          2.0765         27.5068       -999.2500        153.0770          0.3585
  347.4720          2.0765         27.8100        155.2169        153.0758          0.3585
  347.6244          2.0765         28.4166        155.2146        153.0745          0.3584
  347.7768          2.0765         29.9329        155.2123        153.0762          0.3584
  347.9292          2.0765         27.8100        155.2101        153.0741          0.3584
  348.0816          2.0765         24.4741        155.2078        153.0702          0.3584
  348.2340          2.0765         24.1708        155.2055        153.0700          0.3584
  348.3864          2.0766         26.5970        155.2032        153.0680          0.3584
  348.5388       -999.2500       -999.2500        155.2009       -999.2500       -999.2500
  348.5388          2.0766         26.5970       -999.2500        153.0698          0.3584
  348.6912       -999.2500       -999.2500        155.1986       -999.2500       -999.2500
  348.6912          2.0766         25.0806       -999.2500        153.0660          0.3584
  348.8436       -999.2500       -999.2500        155.1964       -999.2500       -999.2500
  348.8436          2.0766         21.7447       -999.2500        153.0678          0.3584
  348.9960       -999.2500       -999.2500        155.1941       -999.2500       -999.2500
  348.9960          2.0766         20.2284       -999.2500        153.0641          0.3584
  349.1484       -999.2500       -999.2500        155.1918       -999.2500       -999.2500
  349.1484          2.0766         21.7447       -999.2500        153.0622          0.3584
  349.3008       -999.2500       -999.2500        155.1895       -999.2500       -999.2500
  349.3008          2.0766         23.2610       -999.2500        153.0622          0.3584
  349.4532          2.0767         23.5643        155.1872        153.0614          0.3583
  349.6056          2.0767         26.2937        155.1849        153.0624          0.3583
  349.7580          2.0767         26.9002        155.1826        153.0588          0.3583
  349.9104          2.0767         29.3264        155.1803        153.0609          0.3583
  350.0628          2.0767         30.8427        155.1781        153.0592          0.3583
  350.2152          2.0767         30.8427        155.1758        153.0557          0.3583
  350.3676          2.0767         30.8427        155.1735        153.0559          0.3583
  350.5200       -999.2500       -999.2500        155.1712       -999.2500       -999.2500
  350.5200          2.0767         30.8427       -999.2500        153.0543          0.3583
  350.6724       -999.2500       -999.2500        155.1689       -999.2500       -999.2500
  350.6724          2.0768         30.8427       -999.2500        153.0527          0.3583
  350.8248       -999.2500       -999.2500        155.1666       -999.2500       -999.2500
  350.8248          2.0768         30.8427       -999.2500        153.0531          0.3583
  350.9772       -999.2500       -999.2500        155.1643       -999.2500       -999.2500
  350.9772          2.0768         30.2362       -999.2500        153.0516          0.3583
  351.1296       -999.2500       -999.2500        155.1621       -999.2500       -999.2500
  351.1296          2.0768         30.2362       -999.2500        153.0501          0.3583
  351.2820       -999.2500       -999.2500        155.1598       -999.2500       -999.2500
  351.2820          2.0768         26.5970       -999.2500        153.0505          0.3582
  351.4344          2.0768         26.9002        155.1575        153.0483          0.3582
  351.5868          2.0768         29.3264        155.1552        153.0477          0.3582
  351.7392          2.0768         33.2688        155.1529        153.0464          0.3582
  351.8916          2.0769         32.0558        155.1506        153.0470          0.3582
  352.0440          2.0769         31.7525        155.1483        153.0438          0.3582
  352.1964          2.0769         31.7525        155.1461        153.0444          0.3582
  352.3488       -999.2500       -999.2500        155.1438       -999.2500       -999.2500
  352.3488          2.0769         29.3264       -999.2500        153.0432          0.3582
  352.5012       -999.2500       -999.2500        155.1415       -999.2500       -999.2500
  352.5012          2.0769         23.8676       -999.2500        153.0382          0.3582
  352.6536       -999.2500       -999.2500        155.1392       -999.2500       -999.2500
  352.6536          2.0769         22.0480       -999.2500        153.0408          0.3582
  352.8060       -999.2500       -999.2500        155.1369       -999.2500       -999.2500
  352.8060          2.0769         25.6872       -999.2500        153.0396          0.3582
  352.9584       -999.2500       -999.2500        155.1346       -999.2500       -999.2500
  352.9584          2.0770         27.5068       -999.2500        153.0385          0.3582
  353.1108       -999.2500       -999.2500        155.1323       -999.2500       -999.2500
  353.1108          2.0770         28.1133       -999.2500        153.0374          0.3581
  353.2632       -999.2500       -999.2500        155.1301       -999.2500       -999.2500
  353.2632          2.0770         26.9002       -999.2500        153.0345          0.3581
  353.4156          2.0770         26.5970        155.1278        153.0364          0.3581
  353.5680          2.0770         24.1708        155.1255        153.0325          0.3581
  353.7204          2.0770         22.9578        155.1232        153.0334          0.3581
  353.8728          2.0770         24.7774        155.1209        153.0324          0.3581
  354.0252          2.0770         27.8100        155.1186        153.0296          0.3581
  354.1776          2.0771         29.9329        155.1163        153.0306          0.3581
  354.3300       -999.2500       -999.2500        155.1140       -999.2500       -999.2500
  354.3300          2.0771         28.1133       -999.2500        153.0260          0.3581
  354.4824       -999.2500       -999.2500        155.1118       -999.2500       -999.2500
  354.4824          2.0771         22.6545       -999.2500        153.0289          0.3581
  354.6348       -999.2500       -999.2500        155.1095       -999.2500       -999.2500
  354.6348          2.0771         22.6545       -999.2500        153.0263          0.3581
  354.7872       -999.2500       -999.2500        155.1072       -999.2500       -999.2500
  354.7872          2.0771         22.6545       -999.2500        153.0236          0.3581
  354.9396       -999.2500       -999.2500        155.1049       -999.2500       -999.2500
  354.9396          2.0771         26.9613       -999.2500        153.0247          0.3580
  355.0920       -999.2500       -999.2500        155.1026       -999.2500       -999.2500
  355.0920          2.0771         32.2146       -999.2500        153.0221          0.3580
  355.2444          2.0772         36.9080        155.1003        153.0206          0.3580
  355.3968          2.0772         38.1211        155.0981        153.0227          0.3580
  355.5492          2.0772         36.3015        155.0958        153.0202          0.3580
  355.7016          2.0772         34.7852        155.0935        153.0177          0.3580
  355.8540          2.0772         34.1786        155.0912        153.0171          0.3580
  356.0064          2.0772         34.4819        155.0889        153.0165          0.3580
  356.1588          2.0772         35.0884        155.0866        153.0160          0.3580
  356.3112       -999.2500       -999.2500        155.0843       -999.2500       -999.2500
