~VERSION INFORMATION
 VERS.                          2.0   : CWLS LOG ASCII STANDARD - VERSION 2.0
 WRAP.                          NO    : ONE LINE PER DEPTH STEP
#
~Well Information Section
#MNEM     .UNIT     DATA                DESCRIPTION
#-----    -----     --------            --------------
 STRT     .M        29.2608             : START DEPTH
 STOP     .M        1699.8696           : END DEPTH
 STEP     .M        0.0000              : INCREMENT DEPTH
 NULL     .         -999.2500           : NULL VALUE
 COMP     .                              :
 WELL     .         F06-01              : WELL NAME
 EKB      .M        29.1400             : KELLY BUSHING ELEVATION
 EGL      .M        0.0000              : GROUND LEVEL ELEVATION
 EPD      .M        0.0000              : PERMANENT DATUM ELEVATION
 FLD      .                              :
 XWELL	.M	    607903			: XWELL LOCATION
YWELL		.M	    6077213		: YWELL LOCATION
 PROV     .                              :
 SRVC     .                              :
 PROV     .                              :
 DATE     .                              :
 API      .                              :
#
~Curve Information Section
#MNEM     .UNIT               Curve #DESCRIPTION
#-----    -----               ----   --------------
 DEPTH    .M                  : 1     Name = Domain Curve - Type = DEPTH
 RHOB     .g/cc               : 2     Name = Density_fromDT - Type = Density
 GR       .API                : 3     Name = GR_balanced - Type = Gamma Ray
 DT       .us/ft              : 4     Name = P-wave_1 - Type = P-wave
 DT       .us/ft              : 5     Name = P-wave_corr - Type = P-wave
 UNKNOWN  .fraction           : 6     Name = Porosity_math - Type = Porosity
~A (ASCII LOG DATA)
# ...
  427.6344          2.0834         24.4741        154.0145        152.5201          0.3541
  427.7868          2.0834         26.2937        154.0122        152.5182          0.3541
  427.9392          2.0835         26.9002        154.0099        152.5182          0.3541
  428.0916          2.0835         27.8100        154.0076        152.5183          0.3541
  428.2440       -999.2500       -999.2500        154.0053       -999.2500       -999.2500
  428.2440          2.0835         27.2035       -999.2500        152.5165          0.3541
  428.3964       -999.2500       -999.2500        154.0031       -999.2500       -999.2500
  428.3964          2.0835         26.9002       -999.2500        152.5148          0.3541
  428.5488       -999.2500       -999.2500        154.0008       -999.2500       -999.2500
  428.5488          2.0835         24.7774       -999.2500        152.5149          0.3541
  428.7012       -999.2500       -999.2500        153.9985       -999.2500       -999.2500
  428.7012          2.0835         24.1708       -999.2500        152.5113          0.3541
  428.8536       -999.2500       -999.2500        153.9962       -999.2500       -999.2500
  428.8536          2.0835         22.6545       -999.2500        152.5115          0.3540
  429.0060       -999.2500       -999.2500        153.9939       -999.2500       -999.2500
  429.0060          2.0835         24.4741       -999.2500        152.5117          0.3540
  429.1584          2.0836         28.4166        153.9916        152.5076          0.3540
  429.3108          2.0836         29.6296        153.9893        152.5085          0.3540
  429.4632          2.0836         27.5068        153.9870        152.5088          0.3540
  429.6156          2.0836         24.1708        153.9848        152.5055          0.3540
  429.7680          2.0836         23.5643        153.9825        152.5058          0.3540
  429.9204          2.0836         23.5643        153.9802        152.5043          0.3540
  430.0728          2.0836         22.9578        153.9779        152.5048          0.3540
  430.2252       -999.2500       -999.2500        153.9756       -999.2500       -999.2500
  430.2252          2.0836         18.1055       -999.2500        152.5034          0.3540
  430.3776       -999.2500       -999.2500        153.9733       -999.2500       -999.2500
  430.3776          2.0837         19.3186       -999.2500        152.5001          0.3540
  430.5300       -999.2500       -999.2500        153.9711       -999.2500       -999.2500
  430.5300          2.0837         19.3186       -999.2500        152.5025          0.3540
  430.6824       -999.2500       -999.2500        153.9688       -999.2500       -999.2500
  430.6824          2.0837         20.2284       -999.2500        152.4994          0.3539
  430.8348       -999.2500       -999.2500        153.9665       -999.2500       -999.2500
  430.8348          2.0837         21.4414       -999.2500        152.5000          0.3539
  430.9872       -999.2500       -999.2500        153.9642       -999.2500       -999.2500
  430.9872          2.0837         24.1708       -999.2500        152.4968          0.3539
  431.1396          2.0837         25.0806        153.9619        152.4950          0.3539
  431.2920          2.0837         25.0806        153.9596        152.4944          0.3539
  431.4444          2.0838         19.0153        153.9573        152.4951          0.3539
  431.5968          2.0838         19.6218        153.9550        152.4939          0.3539
  431.7492          2.0838         19.0153        153.9528        152.4909          0.3539
  431.9016          2.0838         22.9578        153.9505        152.4917          0.3539
  432.0540       -999.2500       -999.2500        153.9482       -999.2500       -999.2500
  432.0540          2.0838         24.7774       -999.2500        152.4907          0.3539
  432.2064       -999.2500       -999.2500        153.9459       -999.2500       -999.2500
  432.2064          2.0838         26.5970       -999.2500        152.4878          0.3539
  432.3588       -999.2500       -999.2500        153.9436       -999.2500       -999.2500
  432.3588          2.0838         29.0231       -999.2500        152.4886          0.3539
  432.5112       -999.2500       -999.2500        153.9413       -999.2500       -999.2500
  432.5112          2.0838         33.5721       -999.2500        152.4877          0.3538
  432.6636       -999.2500       -999.2500        153.9390       -999.2500       -999.2500
  432.6636          2.0839         33.8754       -999.2500        152.4848          0.3538
  432.8160       -999.2500       -999.2500        153.9368       -999.2500       -999.2500
  432.8160          2.0839         32.0558       -999.2500        152.4840          0.3538
  432.9684       -999.2500       -999.2500        153.9345       -999.2500       -999.2500
  432.9684          2.0839         30.5394       -999.2500        152.4830          0.3538
  433.1208          2.0839         30.8427        153.9322        152.4835          0.3538
  433.2732          2.0839         30.8427        153.9299        152.4814          0.3538
  433.4256          2.0839         30.8427        153.9276        152.4787          0.3538
  433.5780          2.0839         30.8427        153.9253        152.4817          0.3538
  433.7304          2.0840         28.7198        153.9230        152.4772          0.3538
  433.8828          2.0840         34.1786        153.9208        152.4784          0.3538
  434.0352       -999.2500       -999.2500        153.9185       -999.2500       -999.2500
  434.0352          2.0840         32.0558       -999.2500        152.4758          0.3538
  434.1876       -999.2500       -999.2500        153.9162       -999.2500       -999.2500
  434.1876          2.0840         32.9656       -999.2500        152.4752          0.3538
  434.3400       -999.2500       -999.2500        153.9139       -999.2500       -999.2500
  434.3400          2.0840         30.2362       -999.2500        152.4726          0.3537
  434.4924       -999.2500       -999.2500        153.9116       -999.2500       -999.2500
  434.4924          2.0840         29.3264       -999.2500        152.4720          0.3537
  434.6448       -999.2500       -999.2500        153.9093       -999.2500       -999.2500
  434.6448          2.0840         25.3839       -999.2500        152.4733          0.3537
  434.7972       -999.2500       -999.2500        153.9070       -999.2500       -999.2500
  434.7972          2.0840         23.8676       -999.2500        152.4709          0.3537
  434.9496          2.0841         23.8676        153.9048        152.4698          0.3537
  435.1020          2.0841         25.0475        153.9025        152.4680          0.3537
  435.2544          2.0841         27.3541        153.9002        152.4676          0.3537
  435.4068          2.0841         29.6608        153.8979        152.4671          0.3537
  435.5592          2.0841         32.0558        153.8956        152.4668          0.3537
  435.7116          2.0841         29.6296        153.8933        152.4646          0.3537
  435.8640          2.0841         34.1786        153.8910        152.4642          0.3537
  436.0164       -999.2500       -999.2500        153.8887       -999.2500       -999.2500
  436.0164          2.0842         32.6623       -999.2500        152.4620          0.3537
  436.1688       -999.2500       -999.2500        153.8865       -999.2500       -999.2500
  436.1688          2.0842         29.3264       -999.2500        152.4636          0.3536
  436.3212       -999.2500       -999.2500        153.8842       -999.2500       -999.2500
  436.3212          2.0842         28.1133       -999.2500        152.4596          0.3536
  436.4736       -999.2500       -999.2500        153.8819       -999.2500       -999.2500
  436.4736          2.0842         27.2035       -999.2500        152.4613          0.3536
