~VERSION INFORMATION
 VERS.                          2.0   : CWLS LOG ASCII STANDARD - VERSION 2.0
 WRAP.                          NO    : ONE LINE PER DEPTH STEP
#
~Well Information Section
#MNEM     .UNIT     DATA                DESCRIPTION
#-----    -----     --------            --------------
 STRT     .M        29.2608             : START DEPTH
 STOP     .M        1699.8696           : END DEPTH
 STEP     .M        0.0000              : INCREMENT DEPTH
 NULL     .         -999.2500           : NULL VALUE
 COMP     .                              :
 WELL     .         F06-01              : WELL NAME
 EKB      .M        29.1400             : KELLY BUSHING ELEVATION
 EGL      .M        0.0000              : GROUND LEVEL ELEVATION
 EPD      .M        0.0000              : PERMANENT DATUM ELEVATION
 FLD      .                              :
 XWELL	.M	    607903			: XWELL LOCATION
YWELL		.M	    6077213		: YWELL LOCATION
 PROV     .                              :
 SRVC     .                              :
 PROV     .                              :
 DATE     .                              :
 API      .                              :
#
~Curve Information Section
#MNEM     .UNIT               Curve #DESCRIPTION
#-----    -----               ----   --------------
 DEPTH    .M                  : 1     Name = Domain Curve - Type = DEPTH
 RHOB     .g/cc               : 2     Name = Density_fromDT - Type = Density
 GR       .API                : 3     Name = GR_balanced - Type = Gamma Ray
 DT       .us/ft              : 4     Name = P-wave_1 - Type = P-wave
 DT       .us/ft              : 5     Name = P-wave_corr - Type = P-wave
 UNKNOWN  .fraction           : 6     Name = Porosity_math - Type = Porosity
~A (ASCII LOG DATA)
# ...
  626.9736          2.0913         65.9459        152.6494        155.0769          0.3492
  627.1260          2.0959         66.4008        151.8526        154.2928          0.3463
  627.2784          2.0959         68.6752        151.8526        154.3086          0.3463
  627.4308          2.0925         70.9498        152.4502        154.9148          0.3485
  627.5832          2.0856         71.8596        153.6454        156.1246          0.3528
  627.7356          2.0833         73.6792        154.0438        156.5322          0.3542
  627.8880          2.0787         75.0439        154.8406        157.3425          0.3571
  628.0404          2.0752         75.9537        155.4382        157.9504          0.3592
  628.1928          2.0752         76.4086        155.4382        157.9662          0.3592
  628.3452          2.0694         78.6831        156.4343        158.9729          0.3628
  628.4976          2.0660         80.9576        157.0319        159.5835          0.3650
  628.6500          2.0602         83.2321        158.0279        160.5910          0.3686
  628.8024          2.0625         85.0517        157.6295        160.2046          0.3672
  628.9548          2.0741         85.0517        155.6375        158.2273          0.3600
  629.1072          2.0764         78.2282        155.2390        157.8371          0.3585
  629.2596          2.0787         72.7694        154.8406        157.4555          0.3571
  629.4120          2.0833         68.6752        154.0438        156.6701          0.3542
  629.5644          2.0856         68.6752        153.6454        156.2836          0.3528
  629.7168          2.0833         67.7654        154.0438        156.6943          0.3542
  629.8692          2.0810         65.9459        154.4422        157.1033          0.3557
  630.0216          2.0787         64.1263        154.8406        157.5189          0.3571
  630.1740          2.0775         65.0360        155.0398        157.7291          0.3578
  630.3264          2.0732         67.0431        155.7896        158.4946          0.3605
  630.4788          2.0706         68.2203        156.2351        158.9466          0.3621
  630.6312          2.0683         69.5851        156.6335        159.3576          0.3636
  630.7836          2.0683         72.7694        156.6335        159.3763          0.3636
  630.9360          2.0683         71.8596        156.6335        159.3828          0.3636
  631.0884          2.0798         71.8596        154.6414        157.4075          0.3564
  631.2408          2.0787         75.0439        154.8406        157.6170          0.3571
  631.3932          2.0729         81.4125        155.8367        158.6275          0.3607
  631.5456          2.0752         70.0399        155.4382        158.2384          0.3592
  631.6980          2.0764         62.7615        155.2390        158.0505          0.3585
  631.8504          2.0821         64.1263        154.2430        157.0721          0.3549
  632.0028          2.0833         69.1301        154.0438        156.8835          0.3542
  632.1552          2.0798         74.1341        154.6414        157.4916          0.3564
  632.3076          2.0717         79.1380        156.0359        158.9028          0.3614
  632.4600          2.0568         81.8674        158.6255        161.5000          0.3708
  632.6124          2.0533         82.7772        159.2231        162.1152          0.3729
  632.7648          2.0533         78.2282        159.2231        162.1300          0.3729
  632.9172          2.0602         69.5851        158.0279        160.9466          0.3686
  633.0696          2.0648         63.2164        157.2311        160.1572          0.3657
  633.2220          2.0729         58.2125        155.8367        158.7778          0.3607
  633.3744          2.0717         52.7537        156.0359        158.9946          0.3614
  633.5268          2.0671         52.7537        156.8327        159.8000          0.3643
  633.6792          2.0648         60.0321        157.2311        160.2167          0.3657
  633.8316          2.0706         64.5811        156.2351        159.2285          0.3621
  633.9840          2.0729         63.6713        155.8367        158.8468          0.3607
  634.1364          2.0752         68.6752        155.4382        158.4565          0.3592
  634.2888          2.0764         70.9498        155.2390        158.2733          0.3585
  634.4412          2.0775         71.4047        155.0398        158.0831          0.3578
  634.5936          2.0741         69.1301        155.6375        158.6973          0.3600
  634.7460          2.0729         68.2203        155.8367        158.9108          0.3607
  634.8984          2.0741         69.1301        155.6375        158.7242          0.3600
  635.0508          2.0798         69.1301        154.6414        157.7380          0.3564
  635.2032          2.0863         69.7018        153.5236        156.6341          0.3523
  635.3556          2.0896         68.8725        152.9421        156.0632          0.3502
  635.5080          2.0925         69.1301        152.4502        155.5856          0.3485
  635.6604          2.0971         69.5851        151.6534        154.8018          0.3456
  635.8128          2.0971         73.6792        151.6534        154.8116          0.3456
  635.9652          2.0821         75.4988        154.2430        157.4143          0.3549
  636.1176          2.0671         76.8635        156.8327        160.0141          0.3643
  636.2700          2.0591         75.9537        158.2271        161.4226          0.3693
  636.4224          2.0430         76.4086        161.0159        164.2200          0.3794
  636.5748          2.0384         70.9498        161.8127        165.0317          0.3823
  636.7272          2.0361         70.0399        162.2112        165.4423          0.3837
  636.8796          2.0361         70.4949        162.2112        165.4509          0.3837
  637.0320          2.0338         75.4988        162.6096        165.8616          0.3851
  637.1844          2.0326         79.1380        162.8088        166.0730          0.3859
  637.3368          2.0338         80.5027        162.6096        165.8865          0.3851
  637.4892          2.0338         80.5027        162.6096        165.8960          0.3851
  637.6416          2.0372         77.3184        162.0119        165.3137          0.3830
  637.7940          2.0464         75.4988        160.4183        163.7248          0.3772
  637.9464          2.0522         73.6792        159.4223        162.7448          0.3736
  638.0988          2.0787         73.6792        154.8406        158.1741          0.3571
  638.2512          2.0936         70.9498        152.2510        155.5958          0.3477
  638.4036          2.1143         69.5851        148.6653        152.0240          0.3348
  638.5560          2.1109         69.5851        149.2630        152.6299          0.3370
  638.7084          2.1109         71.4047        149.2630        152.6476          0.3370
  638.8608          2.1189         73.6792        147.8685        151.2613          0.3319
  639.0132          2.1166         75.9537        148.2669        151.6754          0.3334
  639.1656          2.1166         76.4086        148.2669        151.6857          0.3334
  639.3180          2.1109         77.7733        149.2630        152.6926          0.3370
  639.4704          2.1063         80.0478        150.0598        153.5025          0.3398
  639.6228          2.0890         85.0517        153.0478        156.5043          0.3506
  639.7752          2.0787         90.5105        154.8406        158.3079          0.3571
  639.9276          2.0741         97.7889        155.6375        159.1211          0.3600
  640.0800          2.0789         95.6709        154.8037        158.3006          0.3570
  640.2324          2.0841         89.0363        153.9039        157.4091          0.3537
