~VERSION INFORMATION
 VERS.                          2.0   : CWLS LOG ASCII STANDARD - VERSION 2.0
 WRAP.                          NO    : ONE LINE PER DEPTH STEP
#
~Well Information Section
#MNEM     .UNIT     DATA                DESCRIPTION
#-----    -----     --------            --------------
 STRT     .M        29.2608             : START DEPTH
 STOP     .M        1699.8696           : END DEPTH
 STEP     .M        0.0000              : INCREMENT DEPTH
 NULL     .         -999.2500           : NULL VALUE
 COMP     .                              :
 WELL     .         F06-01              : WELL NAME
 EKB      .M        29.1400             : KELLY BUSHING ELEVATION
 EGL      .M        0.0000              : GROUND LEVEL ELEVATION
 EPD      .M        0.0000              : PERMANENT DATUM ELEVATION
 FLD      .                              :
 XWELL	.M	    607903			: XWELL LOCATION
YWELL		.M	    6077213		: YWELL LOCATION
 PROV     .                              :
 SRVC     .                              :
 PROV     .                              :
 DATE     .                              :
 API      .                              :
#
~Curve Information Section
#MNEM     .UNIT               Curve #DESCRIPTION
#-----    -----               ----   --------------
 DEPTH    .M                  : 1     Name = Domain Curve - Type = DEPTH
 RHOB     .g/cc               : 2     Name = Density_fromDT - Type = Density
 GR       .API                : 3     Name = GR_balanced - Type = Gamma Ray
 DT       .us/ft              : 4     Name = P-wave_1 - Type = P-wave
 DT       .us/ft              : 5     Name = P-wave_corr - Type = P-wave
 UNKNOWN  .fraction           : 6     Name = Porosity_math - Type = Porosity
~A (ASCII LOG DATA)
   29.2608          2.0489       -999.2500        159.9901        159.9901          0.3757
   29.4132          2.0489       -999.2500        159.9878        158.6808          0.3757
   29.5656          2.0489       -999.2500        159.9855        158.6795          0.3757
   29.7180          2.0490       -999.2500        159.9832        158.6745          0.3757
   29.8704          2.0490       -999.2500        159.9809        158.6733          0.3756
   30.0228          2.0490       -999.2500        159.9787        158.6701          0.3756
   30.1752          2.0490       -999.2500        159.9764        158.6669          0.3756
   30.3276          2.0490       -999.2500        159.9741        158.6657          0.3756
   30.4800          2.0490       -999.2500        159.9718        158.6606          0.3756
   30.6324          2.0490       -999.2500        159.9695        158.6593          0.3756
   30.7848          2.0490       -999.2500        159.9672        158.6542          0.3756
   30.9372          2.0491       -999.2500        159.9649        158.6528          0.3756
   31.0896          2.0491       -999.2500        159.9627        158.6496          0.3756
   31.2420          2.0491       -999.2500        159.9604        158.6482          0.3756
   31.3944          2.0491       -999.2500        159.9581        158.6431          0.3756
   31.5468          2.0491       -999.2500        159.9558        158.6397          0.3756
   31.6992          2.0491       -999.2500        159.9535        158.6383          0.3755
   31.8516          2.0491       -999.2500        159.9512        158.6350          0.3755
   32.0040          2.0491       -999.2500        159.9489        158.6316          0.3755
   32.1564          2.0492       -999.2500        159.9467        158.6282          0.3755
   32.3088          2.0492       -999.2500        159.9444        158.6249          0.3755
   32.4612          2.0492       -999.2500        159.9421        158.6234          0.3755
   32.6136          2.0492       -999.2500        159.9398        158.6200          0.3755
   32.7660          2.0492       -999.2500        159.9375        158.6165          0.3755
   32.9184          2.0492       -999.2500        159.9352        158.6150          0.3755
   33.0708          2.0492       -999.2500        159.9329        158.6096          0.3755
   33.2232          2.0493       -999.2500        159.9306        158.6080          0.3755
   33.3756          2.0493       -999.2500        159.9284        158.6045          0.3755
   33.5280          2.0493       -999.2500        159.9261        158.6029          0.3754
   33.6804          2.0493       -999.2500        159.9238        158.5995          0.3754
   33.8328          2.0493       -999.2500        159.9215        158.5959          0.3754
   33.9852          2.0493       -999.2500        159.9192        158.5923          0.3754
   34.1376          2.0493       -999.2500        159.9169        158.5906          0.3754
   34.2900          2.0493       -999.2500        159.9147        158.5890          0.3754
   34.4424          2.0494       -999.2500        159.9124        158.5835          0.3754
   34.5948          2.0494       -999.2500        159.9101        158.5817          0.3754
   34.7472          2.0494       -999.2500        159.9078        158.5781          0.3754
   34.8996          2.0494       -999.2500        159.9055        158.5764          0.3754
   35.0520          2.0494       -999.2500        159.9032        158.5727          0.3754
   35.2044          2.0494       -999.2500        159.9009        158.5691          0.3754
   35.3568          2.0494       -999.2500        159.8987        158.5672          0.3754
   35.5092          2.0495       -999.2500        159.8964        158.5635          0.3753
   35.6616          2.0495       -999.2500        159.8941        158.5597          0.3753
   35.8140          2.0495       -999.2500        159.8918        158.5579          0.3753
   35.9664          2.0495       -999.2500        159.8895        158.5561          0.3753
   36.1188          2.0495       -999.2500        159.8872        158.5523          0.3753
   36.2712          2.0495       -999.2500        159.8849        158.5484          0.3753
   36.4236          2.0495       -999.2500        159.8826        158.5466          0.3753
   36.5760          2.0495       -999.2500        159.8804        158.5428          0.3753
   36.7284          2.0496       -999.2500        159.8781        158.5408          0.3753
   36.8808          2.0496       -999.2500        159.8758        158.5388          0.3753
   37.0332          2.0496       -999.2500        159.8735        158.5331          0.3753
   37.1856          2.0496       -999.2500        159.8712        158.5311          0.3753
   37.3380          2.0496       -999.2500        159.8689        158.5291          0.3752
   37.4904          2.0496       -999.2500        159.8666        158.5252          0.3752
   37.6428          2.0496       -999.2500        159.8644        158.5231          0.3752
   37.7952          2.0497       -999.2500        159.8621        158.5192          0.3752
   37.9476          2.0497       -999.2500        159.8598        158.5171          0.3752
   38.1000          2.0497       -999.2500        159.8575        158.5150          0.3752
   38.2524          2.0497       -999.2500        159.8552        158.5110          0.3752
   38.4048          2.0497       -999.2500        159.8529        158.5070          0.3752
   38.5572          2.0497       -999.2500        159.8506        158.5030          0.3752
   38.7096          2.0497       -999.2500        159.8484        158.5027          0.3752
   38.8620          2.0497       -999.2500        159.8461        158.4987          0.3752
   39.0144          2.0498       -999.2500        159.8438        158.4965          0.3752
   39.1668          2.0498       -999.2500        159.8415        158.4924          0.3751
   39.3192          2.0498       -999.2500        159.8392        158.4901          0.3751
   39.4716          2.0498       -999.2500        159.8369        158.4880          0.3751
   39.6240          2.0498       -999.2500        159.8346        158.4839          0.3751
   39.7764          2.0498       -999.2500        159.8324        158.4816          0.3751
   39.9288          2.0498       -999.2500        159.8301        158.4792          0.3751
   40.0812          2.0498       -999.2500        159.8278        158.4751          0.3751
   40.2336          2.0499       -999.2500        159.8255        158.4728          0.3751
   40.3860          2.0499       -999.2500        159.8232        158.4704          0.3751
   40.5384          2.0499       -999.2500        159.8209        158.4662          0.3751
   40.6908          2.0499       -999.2500        159.8186        158.4639          0.3751
   40.8432          2.0499       -999.2500        159.8163        158.4596          0.3751
   40.9956          2.0499       -999.2500        159.8141        158.4572          0.3750
   41.1480          2.0499       -999.2500        159.8118        158.4547          0.3750
   41.3004          2.0500       -999.2500        159.8095        158.4525          0.3750
   41.4528          2.0500       -999.2500        159.8072        158.4481          0.3750
   41.6052          2.0500       -999.2500        159.8049        158.4457          0.3750
   41.7576          2.0500       -999.2500        159.8026        158.4413          0.3750
   41.9100          2.0500       -999.2500        159.8004        158.4407          0.3750
   42.0624          2.0500       -999.2500        159.7981        158.4382          0.3750
   42.2148          2.0500       -999.2500        159.7958        158.4357          0.3750
   42.3672          2.0500       -999.2500        159.7935        158.4312          0.3750
   42.5196          2.0501       -999.2500        159.7912        158.4268          0.3750
