~VERSION INFORMATION
 VERS.                          2.0   : CWLS LOG ASCII STANDARD - VERSION 2.0
 WRAP.                          NO    : ONE LINE PER DEPTH STEP
#
~Well Information Section
#MNEM     .UNIT     DATA                DESCRIPTION
#-----    -----     --------            --------------
 STRT     .M        29.2608             : START DEPTH
 STOP     .M        1699.8696           : END DEPTH
 STEP     .M        0.0000              : INCREMENT DEPTH
 NULL     .         -999.2500           : NULL VALUE
 COMP     .                              :
 WELL     .         F06-01              : WELL NAME
 EKB      .M        29.1400             : KELLY BUSHING ELEVATION
 EGL      .M        0.0000              : GROUND LEVEL ELEVATION
 EPD      .M        0.0000              : PERMANENT DATUM ELEVATION
 FLD      .                              :
 XWELL	.M	    607903			: XWELL LOCATION
YWELL		.M	    6077213		: YWELL LOCATION
 PROV     .                              :
 SRVC     .                              :
 PROV     .                              :
 DATE     .                              :
 API      .                              :
#
~Curve Information Section
#MNEM     .UNIT               Curve #DESCRIPTION
#-----    -----               ----   --------------
 DEPTH    .M                  : 1     Name = Domain Curve - Type = DEPTH
 RHOB     .g/cc               : 2     Name = Density_fromDT - Type = Density
 GR       .API                : 3     Name = GR_balanced - Type = Gamma Ray
 DT       .us/ft              : 4     Name = P-wave_1 - Type = P-wave
 DT       .us/ft              : 5     Name = P-wave_corr - Type = P-wave
 UNKNOWN  .fraction           : 6     Name = Porosity_math - Type = Porosity
~A (ASCII LOG DATA)
# ...
  508.1016          2.0904         26.2937       -999.2500        150.5917          0.3498
  508.2540       -999.2500       -999.2500        152.8052       -999.2500       -999.2500
  508.2540          2.0904         25.6872       -999.2500        150.5887          0.3497
  508.4064       -999.2500       -999.2500        152.8029       -999.2500       -999.2500
  508.4064          2.0904         22.9578       -999.2500        150.5845          0.3497
  508.5588       -999.2500       -999.2500        152.8006       -999.2500       -999.2500
  508.5588          2.0904         22.3512       -999.2500        150.5819          0.3497
  508.7112       -999.2500       -999.2500        152.7983       -999.2500       -999.2500
  508.7112          2.0904         22.3512       -999.2500        150.5790          0.3497
  508.8636          2.0905         22.3512        152.7961        150.5786          0.3497
  509.0160          2.0905         23.2610        152.7938        150.5722          0.3497
  509.1684          2.0905         22.9578        152.7915        150.5688          0.3497
  509.3208          2.0905         22.6545        152.7892        150.5657          0.3497
  509.4732          2.0905         20.2284        152.7869        150.5637          0.3497
  509.6256          2.0905         23.2610        152.7846        150.5600          0.3497
  509.7780          2.0905         23.8676        152.7823        150.5573          0.3497
  509.9304       -999.2500       -999.2500        152.7800       -999.2500       -999.2500
  509.9304          2.0906         23.5643       -999.2500        150.5531          0.3497
  510.0828       -999.2500       -999.2500        152.7778       -999.2500       -999.2500
  510.0828          2.0906         23.8350       -999.2500        150.5511          0.3496
  510.2352       -999.2500       -999.2500        152.7755       -999.2500       -999.2500
  510.2352          2.0906         24.7774       -999.2500        150.5471          0.3496
  510.3876       -999.2500       -999.2500        152.7732       -999.2500       -999.2500
  510.3876          2.0906         28.7198       -999.2500        150.5436          0.3496
  510.5400       -999.2500       -999.2500        152.7709       -999.2500       -999.2500
  510.5400          2.0906         24.7774       -999.2500        150.5400          0.3496
  510.6924       -999.2500       -999.2500        152.7686       -999.2500       -999.2500
  510.6924          2.0906         23.8676       -999.2500        150.5381          0.3496
  510.8448          2.0906         23.2610        152.7663        150.5362          0.3496
  510.9972          2.0906         25.3839        152.7640        150.5331          0.3496
  511.1496          2.0907         28.1133        152.7617        150.5304          0.3496
  511.3020          2.0907         31.1460        152.7595        150.5261          0.3496
  511.4544          2.0907         32.3590        152.7572        150.5236          0.3496
  511.6068          2.0907         32.9656        152.7549        150.5221          0.3496
  511.7592       -999.2500       -999.2500        152.7526       -999.2500       -999.2500
  511.7592          2.0907         29.9329       -999.2500        150.5168          0.3496
  511.9116       -999.2500       -999.2500        152.7503       -999.2500       -999.2500
  511.9116          2.0907         26.9002       -999.2500        150.5174          0.3495
  512.0640          2.0907         28.1133        152.7480        150.5121          0.3495
  512.2164          2.0908         30.0972        152.7458        150.5108          0.3495
  512.3688          2.0908         29.9329        152.7435        150.5066          0.3495
  512.5212          2.0908         30.1137        152.7412        150.5040          0.3495
  512.6736          2.0908         30.5394        152.7389        150.5036          0.3495
  512.8260          2.0908         28.7198        152.7366        150.4996          0.3495
  512.9784          2.0908         31.4492        152.7343        150.4957          0.3495
  513.1308          2.0908         32.3590        152.7320        150.4945          0.3495
  513.2832          2.0908         31.9635        152.7298        150.4884          0.3495
  513.4356          2.0909         31.4492        152.7275        150.4898          0.3495
  513.5880          2.0909         31.7525        152.7252        150.4851          0.3495
  513.7404          2.0909         25.3839        152.7229        150.4844          0.3494
  513.8928          2.0909         27.8100        152.7206        150.4818          0.3494
  514.0452          2.0909         25.0806        152.7183        150.4796          0.3494
  514.1976          2.0909         23.2610        152.7160        150.4756          0.3494
  514.3500          2.0909         25.3839        152.7137        150.4737          0.3494
  514.5024          2.0910         28.1133        152.7115        150.4709          0.3494
  514.6548          2.0910         31.7525        152.7092        150.4692          0.3494
  514.8072          2.0910         32.3590        152.7069        150.4661          0.3494
  514.9596          2.0910         31.7525        152.7046        150.4634          0.3494
  515.1120          2.0910         29.3527        152.7023        150.4625          0.3494
  515.2644          2.0910         26.5970        152.7000        150.4577          0.3494
  515.4168          2.0910         26.9002        152.6978        150.4565          0.3494
  515.5692          2.0910         28.4166        152.6955        150.4562          0.3493
  515.7216          2.0911         29.9329        152.6932        150.4510          0.3493
  515.8740          2.0911         31.1460        152.6909        150.4514          0.3493
  516.0264          2.0911         32.3590        152.6886        150.4480          0.3493
  516.1788          2.0911         31.1460        152.6863        150.4472          0.3493
  516.3312          2.0911         29.3264        152.6840        150.4426          0.3493
  516.4836          2.0911         28.7198        152.6817        150.4418          0.3493
  516.6360          2.0911         29.3264        152.6795        150.4416          0.3493
  516.7884          2.0911         27.5068        152.6772        150.4357          0.3493
  516.9408          2.0912         26.5970        152.6749        150.4357          0.3493
  517.0932          2.0912         28.7198        152.6726        150.4342          0.3493
  517.2456          2.0912         29.6296        152.6703        150.4319          0.3493
  517.3980          2.0912         27.8100        152.6680        150.4279          0.3492
  517.5504          2.0912         22.3512        152.6657        150.4269          0.3492
  517.7028          2.0912         23.2610        152.6635        150.4262          0.3492
  517.8552          2.0912         25.3839        152.6612        150.4220          0.3492
  518.0076          2.0913         30.2362        152.6589        150.4216          0.3492
  518.1600          2.0913         32.6623        152.6566        150.4198          0.3492
  518.3124          2.0913         32.0558        152.6543        150.4200          0.3492
  518.4648          2.0913         27.5068        152.6520        150.4145          0.3492
  518.6172          2.0913         29.0231        152.6497        150.4150          0.3492
  518.7696          2.0913         28.7198        152.6475        150.4123          0.3492
  518.9220          2.0913         30.5394        152.6452        150.4115          0.3492
  519.0744          2.0913         31.4492        152.6429        150.4109          0.3492
  519.2268          2.0914         37.2113        152.6406        150.4075          0.3492
  519.3792          2.0914         36.3015        152.6383        150.4083          0.3491
  519.5316          2.0914         33.5721        152.6360        150.4029          0.3491
