~VERSION INFORMATION
 VERS.                          2.0   : CWLS LOG ASCII STANDARD - VERSION 2.0
 WRAP.                          NO    : ONE LINE PER DEPTH STEP
#
~Well Information Section
#MNEM     .UNIT     DATA                DESCRIPTION
#-----    -----     --------            --------------
 STRT     .M        29.2608             : START DEPTH
 STOP     .M        1699.8696           : END DEPTH
 STEP     .M        0.0000              : INCREMENT DEPTH
 NULL     .         -999.2500           : NULL VALUE
 COMP     .                              :
 WELL     .         F06-01              : WELL NAME
 EKB      .M        29.1400             : KELLY BUSHING ELEVATION
 EGL      .M        0.0000              : GROUND LEVEL ELEVATION
 EPD      .M        0.0000              : PERMANENT DATUM ELEVATION
 FLD      .                              :
 XWELL	.M	    607903			: XWELL LOCATION
YWELL		.M	    6077213		: YWELL LOCATION
 PROV     .                              :
 SRVC     .                              :
 PROV     .                              :
 DATE     .                              :
 API      .                              :
#
~Curve Information Section
#MNEM     .UNIT               Curve #DESCRIPTION
#-----    -----               ----   --------------
 DEPTH    .M                  : 1     Name = Domain Curve - Type = DEPTH
 RHOB     .g/cc               : 2     Name = Density_fromDT - Type = Density
 GR       .API                : 3     Name = GR_balanced - Type = Gamma Ray
 DT       .us/ft              : 4     Name = P-wave_1 - Type = P-wave
 DT       .us/ft              : 5     Name = P-wave_corr - Type = P-wave
 UNKNOWN  .fraction           : 6     Name = Porosity_math - Type = Porosity
~A (ASCII LOG DATA)
# ...
  854.9640          2.2098         46.0014        132.1315        156.8634          0.2751
  855.1164          2.2029         46.2777        133.3267        158.0444          0.2794
  855.2688          2.2006         49.5694        133.7251        158.4324          0.2809
  855.4212          2.1903         57.3027        135.5179        160.2290          0.2873
  855.5736          2.1868         61.8517        136.1155        160.8177          0.2895
  855.7260          2.1834         58.6674        136.7132        161.4154          0.2917
  855.8784          2.1695         55.9380        139.1036        163.7946          0.3003
  856.0308          2.1454         56.8478        143.2868        167.9814          0.3154
  856.1832          2.1385         56.8478        144.4821        169.1749          0.3197
  856.3356          2.1385         56.8478        144.4821        169.1634          0.3197
  856.4880          2.1385         54.5733        144.4821        169.1603          0.3197
  856.6404          2.1396         49.5694        144.2829        168.9605          0.3190
  856.7928          2.1442         50.9341        143.4861        168.1590          0.3161
  856.9452          2.1569         54.7760        141.2948        165.9762          0.3082
  857.0976          2.1649         60.0321        139.9004        164.5643          0.3032
  857.2500          2.1649         59.1223        139.9004        164.5575          0.3032
  857.4024          2.1649         53.6635        139.9004        164.5581          0.3032
  857.5548          2.1649         48.6596        139.9004        164.5493          0.3032
  857.7072          2.1649         45.9302        139.9004        164.5497          0.3032
  857.8596          2.1649         44.5655        139.9004        164.5424          0.3032
  858.0120          2.1592         44.5655        140.8964        165.5311          0.3068
  858.1644          2.1580         55.0282        141.0956        165.7264          0.3075
  858.3168          2.1569         60.4870        141.2948        165.9186          0.3082
  858.4692          2.1557         59.1223        141.4940        166.1131          0.3089
  858.6216          2.1500         55.4831        142.4900        167.1031          0.3125
  858.7740          2.1500         52.7537        142.4900        167.1027          0.3125
  858.9264          2.1500         49.5694        142.4900        167.1116          0.3125
  859.0788          2.1500         51.3890        142.4900        167.0867          0.3125
  859.2312          2.1500         50.0243        142.4900        167.0840          0.3125
  859.3836          2.1523         45.4753        142.0916        166.6830          0.3111
  859.5360          2.1557         42.2910        141.4940        166.0807          0.3089
  859.6884          2.1603         44.1106        140.6972        165.2733          0.3060
  859.8408          2.1695         47.2949        139.1036        163.6766          0.3003
  859.9932          2.1764         55.0282        137.9084        162.4746          0.2960
  860.1456          2.1764         54.1184        137.9084        162.4733          0.2960
  860.2980          2.1764         47.2949        137.9084        162.4591          0.2960
  860.4504          2.1764         44.6993        137.9084        162.4586          0.2960
  860.6028          2.1764         46.3851        137.9084        162.4533          0.2960
  860.7552          2.1764         49.8266        137.9084        162.4571          0.2960
  860.9076          2.1764         54.5733        137.9084        162.4426          0.2960
  861.0600          2.1764         52.7537        137.9084        162.4330          0.2960
  861.2124          2.1764         53.2757        137.9084        162.4311          0.2960
  861.3648          2.1718         52.5069        138.7052        163.2144          0.2988
  861.5172          2.1638         51.7382        140.0996        164.6049          0.3039
  861.6696          2.1569         50.9695        141.2948        165.7958          0.3082
  861.8220          2.1569         50.2007        141.2948        165.7917          0.3082
  861.9744          2.1569         49.4320        141.2948        165.7818          0.3082
  862.1268          2.1569         48.6632        141.2948        165.7704          0.3082
  862.2792          2.1569         47.8945        141.2948        165.7689          0.3082
  862.4316          2.1569         47.1257        141.2948        165.7606          0.3082
  862.5840          2.1569         46.3851        141.2948        165.7580          0.3082
  862.7364          2.1592         49.6480        140.8964        165.3603          0.3068
  862.8888          2.1592         50.0243        140.8964        165.3484          0.3068
  863.0412          2.1638         53.2086        140.0996        164.5391          0.3039
  863.1936          2.1649         55.0282        139.9004        164.3314          0.3032
  863.3460          2.1649         55.0282        139.9004        164.3301          0.3032
  863.4984          2.1672         60.4870        139.5020        163.9211          0.3017
  863.6508          2.1672         59.5772        139.5020        163.9121          0.3017
  863.8032          2.1649         59.5772        139.9004        164.3055          0.3032
  863.9556          2.1615         55.9380        140.4980        164.8939          0.3053
  864.1080          2.1569         50.6948        141.2948        165.6822          0.3082
  864.2604          2.1523         50.0243        142.0916        166.4747          0.3111
  864.4128          2.1523         50.0243        142.0916        166.4655          0.3111
  864.5652          2.1523         51.3890        142.0916        166.4619          0.3111
  864.7176          2.1523         54.1184        142.0916        166.4637          0.3111
  864.8700          2.1546         73.2243        141.6932        166.0393          0.3096
  865.0224          2.1569         66.8557        141.2948        165.6407          0.3082
  865.1748          2.1569         54.5733        141.2948        165.6275          0.3082
  865.3272          2.1615         48.2047        140.4980        164.8267          0.3053
  865.4796          2.1649         47.7498        139.9004        164.2214          0.3032
  865.6320          2.1649         48.6596        139.9004        164.2154          0.3032
  865.7844          2.1672         51.3890        139.5020        163.8056          0.3017
  865.9368          2.1695         50.4792        139.1036        163.3990          0.3003
  866.0892          2.1695         51.6078        139.1036        163.3916          0.3003
  866.2416          2.1695         52.1603        139.1036        163.3809          0.3003
  866.3940          2.1695         52.8509        139.1036        163.3783          0.3003
  866.5464          2.1695         54.5733        139.1036        163.3702          0.3003
  866.6988          2.1695         53.2086        139.1036        163.3674          0.3003
  866.8512          2.1695         53.6635        139.1036        163.3520          0.3003
  867.0036          2.1672         45.4753        139.5020        163.7403          0.3017
  867.1560          2.1672         46.8400        139.5020        163.7318          0.3017
  867.3084          2.1695         45.4753        139.1036        163.3269          0.3003
  867.4608          2.1695         45.4753        139.1036        163.3223          0.3003
  867.6132          2.1695         43.6557        139.1036        163.3062          0.3003
  867.7656          2.1695         41.8361        139.1036        163.3015          0.3003
  867.9180          2.1753         41.3299        138.1076        162.2931          0.2967
  868.0704          2.1764         41.3812        137.9084        162.0803          0.2960
  868.2228          2.1741         41.6152        138.3068        162.4749          0.2974
