~VERSION INFORMATION
 VERS.                          2.0   : CWLS LOG ASCII STANDARD - VERSION 2.0
 WRAP.                          NO    : ONE LINE PER DEPTH STEP
#
~Well Information Section
#MNEM     .UNIT     DATA                DESCRIPTION
#-----    -----     --------            --------------
 STRT     .M        29.2608             : START DEPTH
 STOP     .M        1699.8696           : END DEPTH
 STEP     .M        0.0000              : INCREMENT DEPTH
 NULL     .         -999.2500           : NULL VALUE
 COMP     .                              :
 WELL     .         F06-01              : WELL NAME
 EKB      .M        29.1400             : KELLY BUSHING ELEVATION
 EGL      .M        0.0000              : GROUND LEVEL ELEVATION
 EPD      .M        0.0000              : PERMANENT DATUM ELEVATION
 FLD      .                              :
 XWELL	.M	    607903			: XWELL LOCATION
YWELL		.M	    6077213		: YWELL LOCATION
 PROV     .                              :
 SRVC     .                              :
 PROV     .                              :
 DATE     .                              :
 API      .                              :
#
~Curve Information Section
#MNEM     .UNIT               Curve #DESCRIPTION
#-----    -----               ----   --------------
 DEPTH    .M                  : 1     Name = Domain Curve - Type = DEPTH
 RHOB     .g/cc               : 2     Name = Density_fromDT - Type = Density
 GR       .API                : 3     Name = GR_balanced - Type = Gamma Ray
 DT       .us/ft              : 4     Name = P-wave_1 - Type = P-wave
 DT       .us/ft              : 5     Name = P-wave_corr - Type = P-wave
 UNKNOWN  .fraction           : 6     Name = Porosity_math - Type = Porosity
~A (ASCII LOG DATA)
# ...
  270.6624          2.0698         30.2362        156.3691        154.0123          0.3626
  270.8148          2.0698         29.0231        156.3668        154.0102          0.3626
  270.9672          2.0699         25.3839        156.3645        154.0090          0.3626
  271.1196          2.0699         25.6872        156.3622        154.0056          0.3626
  271.2720          2.0699         24.7774        156.3599        154.0021          0.3626
  271.4244          2.0699         22.6545        156.3576        153.9985          0.3626
  271.5768          2.0699         20.8349        156.3553        153.9968          0.3626
  271.7292          2.0699         21.4414        156.3531        153.9928          0.3626
  271.8816          2.0699         23.8676        156.3508        153.9896          0.3625
  272.0340          2.0699         29.6296        156.3485        153.9860          0.3625
  272.1864          2.0700         30.8427        156.3462        153.9843          0.3625
  272.3388          2.0700         30.5394        156.3439        153.9825          0.3625
  272.4912          2.0700         30.5394        156.3416        153.9770          0.3625
  272.6436          2.0700         31.4492        156.3393        153.9747          0.3625
  272.7960          2.0700         31.4492        156.3371        153.9734          0.3625
  272.9484          2.0700         29.9329        156.3348        153.9697          0.3625
  273.1008          2.0700         29.6296        156.3325        153.9660          0.3625
  273.2532          2.0701         30.2362        156.3302        153.9622          0.3625
  273.4056          2.0701         29.6296        156.3279        153.9604          0.3625
  273.5580          2.0701         32.9656        156.3256        153.9585          0.3625
  273.7104          2.0701         31.7973        156.3233        153.9561          0.3624
  273.8628          2.0701         29.8573        156.3211        153.9510          0.3624
  274.0152          2.0701         28.5534        156.3188        153.9471          0.3624
  274.1676          2.0701         27.2494        156.3165        153.9471          0.3624
  274.3200          2.0701         25.9455        156.3142        153.9432          0.3624
  274.4724          2.0702         25.0806        156.3119        153.9413          0.3624
  274.6248          2.0702         25.3839        156.3096        153.9350          0.3624
  274.7772          2.0702         28.1133        156.3073        153.9335          0.3624
  274.9296          2.0702         36.3015        156.3051        153.9315          0.3624
  275.0820          2.0702         33.1131        156.3028        153.9275          0.3624
  275.2344          2.0702         30.2362        156.3005        153.9255          0.3624
  275.3868          2.0702         30.2362        156.2982        153.9234          0.3624
  275.5392          2.0702         28.1133        156.2959        153.9194          0.3623
  275.6916          2.0703         23.5643        156.2936        153.9169          0.3623
  275.8440          2.0703         24.7774        156.2913        153.9115          0.3623
  275.9964          2.0703         29.2138        156.2890        153.9112          0.3623
  276.1488          2.0703         36.6048        156.2868        153.9072          0.3623
  276.3012          2.0703         39.6374        156.2845        153.9031          0.3623
  276.4536          2.0703         34.7852        156.2822        153.9009          0.3623
  276.6060          2.0703         32.6623        156.2799        153.8983          0.3623
  276.7584          2.0704         31.7525        156.2776        153.8965          0.3623
  276.9108          2.0704         31.4492        156.2753        153.8925          0.3623
  277.0632          2.0704         29.3264        156.2731        153.8902          0.3623
  277.2156          2.0704         24.7774        156.2708        153.8861          0.3623
  277.3680          2.0704         23.5643        156.2685        153.8838          0.3622
  277.5204          2.0704         22.0480        156.2662        153.8810          0.3622
  277.6728          2.0704         22.9578        156.2639        153.8773          0.3622
  277.8252          2.0704         19.6218        156.2616        153.8750          0.3622
  277.9776          2.0705         19.9251        156.2593        153.8726          0.3622
  278.1300          2.0705         22.0480        156.2570        153.8703          0.3622
  278.2824          2.0705         29.9329        156.2548        153.8661          0.3622
  278.4348          2.0705         30.2362        156.2525        153.8618          0.3622
  278.5872          2.0705         29.9329        156.2502        153.8608          0.3622
  278.7396          2.0705         29.7512        156.2479        153.8570          0.3622
  278.8920          2.0705         29.5416        156.2456        153.8527          0.3622
  279.0444          2.0706         29.3320        156.2433        153.8502          0.3622
  279.1968          2.0706         29.1225        156.2410        153.8496          0.3621
  279.3492          2.0706         28.9129        156.2388        153.8471          0.3621
  279.5016          2.0706         28.7198        156.2365        153.8423          0.3621
  279.6540          2.0706         28.4166        156.2342        153.8403          0.3621
  279.8064          2.0706         26.5970        156.2319        153.8378          0.3621
  279.9588          2.0706         24.7774        156.2296        153.8333          0.3621
  280.1112          2.0706         24.7774        156.2273        153.8307          0.3621
  280.2636          2.0707         25.3839        156.2251        153.8263          0.3621
  280.4160          2.0707         29.9329        156.2228        153.8270          0.3621
  280.5684          2.0707         29.0231        156.2205        153.8211          0.3621
  280.7208          2.0707         28.4166        156.2182        153.8204          0.3621
  280.8732          2.0707         29.0231        156.2159        153.8159          0.3621
  281.0256          2.0707         30.5394        156.2136        153.8132          0.3620
  281.1780          2.0707         31.4492        156.2113        153.8087          0.3620
  281.3304          2.0707         32.9656        156.2090        153.8078          0.3620
  281.4828          2.0708         32.3590        156.2068        153.8047          0.3620
  281.6352          2.0708         31.4492        156.2045        153.8006          0.3620
  281.7876          2.0708         30.2362        156.2022        153.7978          0.3620
  281.9400          2.0708         28.7198        156.1999        153.7970          0.3620
  282.0924          2.0708         28.7198        156.1976        153.7923          0.3620
  282.2448          2.0708         29.3264        156.1953        153.7895          0.3620
  282.3972          2.0708         30.8427        156.1930        153.7863          0.3620
  282.5496          2.0709         32.9656        156.1908        153.7839          0.3620
  282.7020          2.0709         32.6623        156.1885        153.7811          0.3620
  282.8544          2.0709         31.7525        156.1862        153.7783          0.3619
  283.0068          2.0709         30.2362        156.1839        153.7736          0.3619
  283.1592          2.0709         28.4166        156.1816        153.7725          0.3619
  283.3116          2.0709         24.7774        156.1793        153.7697          0.3619
  283.4640          2.0709         25.0806        156.1770        153.7644          0.3619
  283.6164          2.0709         25.9904        156.1748        153.7639          0.3619
  283.7688          2.0710         32.0558        156.1725        153.7590          0.3619
  283.9212          2.0710         32.3590        156.1702        153.7561          0.3619
