~VERSION INFORMATION
 VERS.                          2.0   : CWLS LOG ASCII STANDARD - VERSION 2.0
 WRAP.                          NO    : ONE LINE PER DEPTH STEP
#
~Well Information Section
#MNEM     .UNIT     DATA                DESCRIPTION
#-----    -----     --------            --------------
 STRT     .M        29.2608             : START DEPTH
 STOP     .M        1699.8696           : END DEPTH
 STEP     .M        0.0000              : INCREMENT DEPTH
 NULL     .         -999.2500           : NULL VALUE
 COMP     .                              :
 WELL     .         F06-01              : WELL NAME
 EKB      .M        29.1400             : KELLY BUSHING ELEVATION
 EGL      .M        0.0000              : GROUND LEVEL ELEVATION
 EPD      .M        0.0000              : PERMANENT DATUM ELEVATION
 FLD      .                              :
 XWELL	.M	    607903			: XWELL LOCATION
YWELL		.M	    6077213		: YWELL LOCATION
 PROV     .                              :
 SRVC     .                              :
 PROV     .                              :
 DATE     .                              :
 API      .                              :
#
~Curve Information Section
#MNEM     .UNIT               Curve #DESCRIPTION
#-----    -----               ----   --------------
 DEPTH    .M                  : 1     Name = Domain Curve - Type = DEPTH
 RHOB     .g/cc               : 2     Name = Density_fromDT - Type = Density
 GR       .API                : 3     Name = GR_balanced - Type = Gamma Ray
 DT       .us/ft              : 4     Name = P-wave_1 - Type = P-wave
 DT       .us/ft              : 5     Name = P-wave_corr - Type = P-wave
 UNKNOWN  .fraction           : 6     Name = Porosity_math - Type = Porosity
~A (ASCII LOG DATA)
# ...
 1217.0664          2.2075         67.3106        132.5299        131.9500          0.2766
 1217.2188          2.2098         59.1223        132.1315        131.5634          0.2751
 1217.3712          2.2041         53.6635        133.1275        132.5659          0.2787
 1217.5236          2.2029         51.8439        133.3267        132.7767          0.2794
 1217.6760          2.1937         54.1184        134.9203        134.3771          0.2852
 1217.8284          2.1741         59.1223        138.3068        137.7736          0.2974
 1217.9808          2.1684         66.4008        139.3028        138.7773          0.3010
 1218.1332          2.1546         74.5890        141.6932        141.1740          0.3096
 1218.2856          2.1546         76.8635        141.6932        141.1881          0.3096
 1218.4380          2.1753         76.4086        138.1076        137.6130          0.2967
 1218.5905          2.2018         71.4047        133.5259        133.0377          0.2802
 1218.7428          2.2018         70.0399        133.5259        133.0499          0.2802
 1218.8951          2.1799         72.7694        137.3108        136.8441          0.2938
 1219.0476          2.1741         74.5890        138.3068        137.8499          0.2974
 1219.2000          2.1937         74.5890        134.9203        134.4733          0.2852
 1219.3524          2.2052         72.7694        132.9283        132.4904          0.2780
 1219.5048          2.2121         70.0399        131.7331        131.3054          0.2737
 1219.6572          2.2190         66.8557        130.5378        130.1228          0.2694
 1219.8096          2.2202         65.4910        130.3386        129.9326          0.2686
 1219.9620          2.2098         64.1263        132.1315        131.7353          0.2751
 1220.1144          2.1983         64.7932        134.1235        133.7394          0.2823
 1220.2668          2.1937         65.5559        134.9203        134.5419          0.2852
 1220.4192          2.1937         66.3185        134.9203        134.5577          0.2852
 1220.5717          2.1880         67.0812        135.9163        135.5589          0.2888
 1220.7240          2.1811         67.8438        137.1116        136.7696          0.2931
 1220.8763          2.1799         70.4949        137.3108        136.9756          0.2938
 1221.0288          2.1741         75.4988        138.3068        137.9841          0.2974
 1221.1812          2.1741         79.1380        138.3068        137.9923          0.2974
 1221.3336          2.1718         75.4988        138.7052        138.4060          0.2988
 1221.4860          2.1730         68.6752        138.5060        138.2184          0.2981
 1221.6384          2.1880         65.9459        135.9163        135.6331          0.2888
 1221.7908          2.1926         63.2164        135.1195        134.8549          0.2859
 1221.9432          2.1949         65.4910        134.7211        134.4642          0.2845
 1222.0956          2.1960         70.4949        134.5219        134.2720          0.2837
 1222.2480          2.1960         74.1341        134.5219        134.2871          0.2837
 1222.4004          2.1960         73.2243        134.5219        134.2973          0.2837
 1222.5529          2.1960         71.8596        134.5219        134.3092          0.2837
 1222.7052          2.2006         72.7694        133.7251        133.5244          0.2809
 1222.8575          2.2098         75.0439        132.1315        131.9370          0.2751
 1223.0100          2.2121         75.0439        131.7331        131.5528          0.2737
 1223.1624          2.2121         78.2282        131.7331        131.5665          0.2737
 1223.3148          2.2121         80.5027        131.7331        131.5766          0.2737
 1223.4672          2.2121         78.2282        131.7331        131.5861          0.2737
 1223.6196          2.2087         79.1380        132.3307        132.1974          0.2758
 1223.7720          2.2041         78.2282        133.1275        133.0034          0.2787
 1223.9244          2.1960         85.9615        134.5219        134.4073          0.2837
 1224.0768          2.1937         87.7811        134.9203        134.8227          0.2852
 1224.2292          2.1937         88.2360        134.9203        134.8280          0.2852
 1224.3816          2.1937         86.4164        134.9203        134.8441          0.2852
 1224.5341          2.1937         85.9615        134.9203        134.8532          0.2852
 1224.6864          2.1960         87.7811        134.5219        134.4655          0.2837
 1224.8387          2.1983         88.2360        134.1235        134.0784          0.2823
 1224.9912          2.2006         85.4013        133.7251        133.6970          0.2809
 1225.1436          2.1937         84.5589        134.9203        134.8991          0.2852
 1225.2960          2.1891         83.7165        135.7171        135.7046          0.2881
 1225.4484          2.1764         82.8741        137.9084        137.9102          0.2960
 1225.6008          2.1672         82.0317        139.5020        139.5198          0.3017
 1225.7532          2.1834         81.1893        136.7132        136.7374          0.2917
 1225.9056          2.1810         80.3469        137.1162        137.1567          0.2931
 1226.0580          2.1759         78.6831        137.9984        138.0451          0.2963
 1226.2104          2.1708         76.4086        138.8806        138.9424          0.2995
 1226.3628          2.1657         74.5890        139.7628        139.8344          0.3027
 1226.5153          2.1606         75.9537        140.6449        140.7328          0.3058
 1226.6676          2.1569         75.9537        141.2948        141.3919          0.3082
 1226.8199          2.1500         66.4008        142.4900        142.6009          0.3125
 1226.9724          2.1500         57.7576        142.4900        142.6121          0.3125
 1227.1248          2.1454         46.8400        143.2868        143.4186          0.3154
 1227.2772          2.1431         46.3851        143.6853        143.8313          0.3168
 1227.4296          2.1442         47.2949        143.4861        143.6459          0.3161
 1227.5820          2.1454         50.4792        143.2868        143.4611          0.3154
 1227.7344          2.1500         50.9341        142.4900        142.6776          0.3125
 1227.8868          2.1557         56.8478        141.4940        141.6916          0.3089
 1228.0392          2.1649         65.0340        139.9004        140.1106          0.3032
 1228.1917          2.1649         75.9537        139.9004        140.1247          0.3032
 1228.3440          2.1649         72.3145        139.9004        140.1367          0.3032
 1228.4965          2.1615         66.8557        140.4980        140.7489          0.3053
 1228.6488          2.1500         60.0321        142.4900        142.7517          0.3125
 1228.8011          2.1649         58.6674        139.9004        140.1774          0.3032
 1228.9536          2.1764         60.4870        137.9084        138.1936          0.2960
 1229.1060          2.1799         59.1223        137.3108        137.6162          0.2938
 1229.2584          2.1834         58.2125        136.7132        137.0223          0.2917
 1229.4108          2.1845         54.5733        136.5139        136.8379          0.2909
 1229.5632          2.1764         48.6596        137.9084        138.2443          0.2960
 1229.7156          2.1753         46.3851        138.1076        138.4575          0.2967
 1229.8680          2.1695         53.2086        139.1036        139.4615          0.3003
 1230.0204          2.1580         45.4753        141.0956        141.4674          0.3075
 1230.1729          2.1500         45.4753        142.4900        142.8752          0.3125
 1230.3252          2.1500         45.4753        142.4900        142.8845          0.3125
