~VERSION INFORMATION
 VERS.                          2.0   : CWLS LOG ASCII STANDARD - VERSION 2.0
 WRAP.                          NO    : ONE LINE PER DEPTH STEP
#
~Well Information Section
#MNEM     .UNIT     DATA                DESCRIPTION
#-----    -----     --------            --------------
 STRT     .M        29.2608             : START DEPTH
 STOP     .M        1699.8696           : END DEPTH
 STEP     .M        0.0000              : INCREMENT DEPTH
 NULL     .         -999.2500           : NULL VALUE
 COMP     .                              :
 WELL     .         F06-01              : WELL NAME
 EKB      .M        29.1400             : KELLY BUSHING ELEVATION
 EGL      .M        0.0000              : GROUND LEVEL ELEVATION
 EPD      .M        0.0000              : PERMANENT DATUM ELEVATION
 FLD      .                              :
 XWELL	.M	    607903			: XWELL LOCATION
YWELL		.M	    6077213		: YWELL LOCATION
 PROV     .                              :
 SRVC     .                              :
 PROV     .                              :
 DATE     .                              :
 API      .                              :
#
~Curve Information Section
#MNEM     .UNIT               Curve #DESCRIPTION
#-----    -----               ----   --------------
 DEPTH    .M                  : 1     Name = Domain Curve - Type = DEPTH
 RHOB     .g/cc               : 2     Name = Density_fromDT - Type = Density
 GR       .API                : 3     Name = GR_balanced - Type = Gamma Ray
 DT       .us/ft              : 4     Name = P-wave_1 - Type = P-wave
 DT       .us/ft              : 5     Name = P-wave_corr - Type = P-wave
 UNKNOWN  .fraction           : 6     Name = Porosity_math - Type = Porosity
~A (ASCII LOG DATA)
# ...
  975.6648          2.2179         49.5694        130.7370        150.1485          0.2701
  975.8172          2.2190         54.1184        130.5378        149.9463          0.2694
  975.9696          2.2179         55.0282        130.7370        150.1463          0.2701
  976.1220          2.2190         57.7576        130.5378        149.9392          0.2694
  976.2744          2.2190         57.7576        130.5378        149.9413          0.2694
  976.4268          2.2202         55.9380        130.3386        149.7376          0.2686
  976.5792          2.2190         54.5733        130.5378        149.9339          0.2694
  976.7316          2.2167         55.0282        130.9362        150.3326          0.2708
  976.8840          2.2190         55.9380        130.5378        149.9309          0.2694
  977.0364          2.2190         55.0282        130.5378        149.9303          0.2694
  977.1888          2.2190         52.7537        130.5378        149.9234          0.2694
  977.3412          2.2202         50.9341        130.3386        149.7276          0.2686
  977.4936          2.2202         46.3851        130.3386        149.7294          0.2686
  977.6460          2.2190         44.1106        130.5378        149.9153          0.2694
  977.7984          2.2225         42.2910        129.9402        149.3188          0.2672
  977.9508          2.2179         46.8400        130.7370        150.1122          0.2701
  978.1032          2.2156         48.6596        131.1355        150.5100          0.2715
  978.2556          2.2144         44.5655        131.3347        150.7014          0.2722
  978.4080          2.2144         41.8361        131.3347        150.7053          0.2722
  978.5604          2.2133         44.1106        131.5339        150.8973          0.2730
  978.7128          2.2121         48.2047        131.7331        151.0956          0.2737
  978.8652          2.2121         46.8400        131.7331        151.0902          0.2737
  979.0176          2.2121         41.8361        131.7331        151.0912          0.2737
  979.1700          2.2121         39.5616        131.7331        151.0875          0.2737
  979.3224          2.2121         44.1106        131.7331        151.0788          0.2737
  979.4748          2.2121         47.7498        131.7331        151.0862          0.2737
  979.6272          2.2110         45.0204        131.9323        151.2774          0.2744
  979.7796          2.2110         42.7459        131.9323        151.2722          0.2744
  979.9320          2.2110         42.2910        131.9323        151.2641          0.2744
  980.0844          2.2110         43.2008        131.9323        151.2665          0.2744
  980.2368          2.2110         42.7459        131.9323        151.2632          0.2744
  980.3892          2.2110         45.9302        131.9323        151.2587          0.2744
  980.5416          2.2121         47.7498        131.7331        151.0541          0.2737
  980.6940          2.2144         41.3812        131.3347        150.6553          0.2722
  980.8464          2.2121         33.1930        131.7331        151.0514          0.2737
  980.9988          2.2121         34.5577        131.7331        151.0466          0.2737
  981.1512          2.2133         38.6518        131.5339        150.8440          0.2730
  981.3036          2.2121         41.8361        131.7331        151.0379          0.2737
  981.4560          2.2121         55.4831        131.7331        151.0442          0.2737
  981.6084          2.2075         58.2125        132.5299        151.8274          0.2766
  981.7608          2.2064         57.3027        132.7291        152.0260          0.2773
  981.9132          2.2075         54.1184        132.5299        151.8209          0.2766
  982.0656          2.2087         50.4726        132.3307        151.6214          0.2758
  982.2180          2.2110         48.6596        131.9323        151.2168          0.2744
  982.3704          2.2110         53.6635        131.9323        151.2126          0.2744
  982.5228          2.2098         55.9380        132.1315        151.4046          0.2751
  982.6752          2.2075         54.1184        132.5299        151.8026          0.2766
  982.8276          2.2064         51.8439        132.7291        151.9999          0.2773
  982.9800          2.2064         44.1106        132.7291        151.9941          0.2773
  983.1324          2.2075         45.4753        132.5299        151.7933          0.2766
  983.2848          2.2098         43.6557        132.1315        151.3983          0.2751
  983.4372          2.2121         42.2910        131.7331        150.9854          0.2737
  983.5896          2.2087         45.9302        132.3307        151.5809          0.2758
  983.7420          2.2110         53.6635        131.9323        151.1767          0.2744
  983.8944          2.2110         58.2125        131.9323        151.1743          0.2744
  984.0468          2.2121         60.9419        131.7331        150.9691          0.2737
  984.1992          2.2133         56.8478        131.5339        150.7677          0.2730
  984.3516          2.2144         53.6635        131.3347        150.5595          0.2722
  984.5040          2.2144         52.2988        131.3347        150.5600          0.2722
  984.6564          2.2133         48.2047        131.5339        150.7543          0.2730
  984.8088          2.2167         47.2949        130.9362        150.1497          0.2708
  984.9612          2.2216         41.3812        130.0931        149.3046          0.2678
  985.1136          2.2213         59.5772        130.1394        149.3445          0.2679
  985.2660          2.2213         60.9419        130.1394        149.3496          0.2679
  985.4184          2.2110         61.8517        131.9323        151.1328          0.2744
  985.5708          2.2144         61.8517        131.3347        150.5244          0.2722
  985.7232          2.2133         60.4870        131.5339        150.7245          0.2730
  985.8756          2.2110         55.0282        131.9323        151.1166          0.2744
  986.0280          2.2110         52.2988        131.9323        151.1100          0.2744
  986.1804          2.2121         53.2086        131.7331        150.9035          0.2737
  986.3328          2.2133         56.8478        131.5339        150.7066          0.2730
  986.4852          2.2144         59.1223        131.3347        150.4964          0.2722
  986.6376          2.2144         56.8478        131.3347        150.4959          0.2722
  986.7900          2.2133         52.2988        131.5339        150.6846          0.2730
  986.9424          2.2117         50.9341        131.8081        150.9570          0.2739
  987.0948          2.2052         50.9341        132.9283        152.0729          0.2780
  987.2472          2.2052         52.7537        132.9283        152.0737          0.2780
  987.3996          2.2029         54.1184        133.3267        152.4610          0.2794
  987.5520          2.2041         54.1184        133.1275        152.2596          0.2787
  987.7044          2.2064         52.2988        132.7291        151.8541          0.2773
  987.8568          2.2041         53.2086        133.1275        152.2447          0.2787
  988.0092          2.2075         53.2086        132.5299        151.6426          0.2766
  988.1616          2.2075         54.5733        132.5299        151.6412          0.2766
  988.3140          2.2110         58.2125        131.9323        151.0345          0.2744
  988.4664          2.2121         59.5772        131.7331        150.8278          0.2737
  988.6188          2.2121         56.3929        131.7331        150.8283          0.2737
  988.7712          2.2098         54.1184        132.1315        151.2192          0.2751
  988.9236          2.2098         53.2086        132.1315        151.2114          0.2751
