~VERSION INFORMATION
 VERS.                          2.0   : CWLS LOG ASCII STANDARD - VERSION 2.0
 WRAP.                          NO    : ONE LINE PER DEPTH STEP
#
~Well Information Section
#MNEM     .UNIT     DATA                DESCRIPTION
#-----    -----     --------            --------------
 STRT     .M        29.2608             : START DEPTH
 STOP     .M        1699.8696           : END DEPTH
 STEP     .M        0.0000              : INCREMENT DEPTH
 NULL     .         -999.2500           : NULL VALUE
 COMP     .                              :
 WELL     .         F06-01              : WELL NAME
 EKB      .M        29.1400             : KELLY BUSHING ELEVATION
 EGL      .M        0.0000              : GROUND LEVEL ELEVATION
 EPD      .M        0.0000              : PERMANENT DATUM ELEVATION
 FLD      .                              :
 XWELL	.M	    607903			: XWELL LOCATION
YWELL		.M	    6077213		: YWELL LOCATION
 PROV     .                              :
 SRVC     .                              :
 PROV     .                              :
 DATE     .                              :
 API      .                              :
#
~Curve Information Section
#MNEM     .UNIT               Curve #DESCRIPTION
#-----    -----               ----   --------------
 DEPTH    .M                  : 1     Name = Domain Curve - Type = DEPTH
 RHOB     .g/cc               : 2     Name = Density_fromDT - Type = Density
 GR       .API                : 3     Name = GR_balanced - Type = Gamma Ray
 DT       .us/ft              : 4     Name = P-wave_1 - Type = P-wave
 DT       .us/ft              : 5     Name = P-wave_corr - Type = P-wave
 UNKNOWN  .fraction           : 6     Name = Porosity_math - Type = Porosity
~A (ASCII LOG DATA)
# ...
 1565.7576          2.1385         60.0321        144.4821        144.4847          0.3197
 1565.9100          2.1408         59.5772        144.0837        144.0883          0.3183
 1566.0624          2.1385         62.3066        144.4821        144.4868          0.3197
 1566.2148          2.1350         66.4008        145.0797        145.0826          0.3219
 1566.3672          2.1281         67.7654        146.2749        146.2797          0.3262
 1566.5197          2.1201         68.6752        147.6693        147.6723          0.3312
 1566.6720          2.1143         75.0439        148.6653        148.6703          0.3348
 1566.8243          2.1201         78.6831        147.6693        147.6725          0.3312
 1566.9768          2.1281         80.9576        146.2749        146.2800          0.3262
 1567.1292          2.1316         75.9537        145.6773        145.6825          0.3240
 1567.2816          2.1316         71.8596        145.6773        145.6807          0.3240
 1567.4340          2.1293         68.6752        146.0757        146.0810          0.3255
 1567.5864          2.1293         67.3106        146.0757        146.0792          0.3255
 1567.7388          2.1327         68.6752        145.4781        145.4798          0.3233
 1567.8912          2.1304         71.4047        145.8765        145.8802          0.3247
 1568.0436          2.1281         71.4047        146.2749        146.2787          0.3262
 1568.1960          2.1281         71.4047        146.2749        146.2788          0.3262
 1568.3484          2.1281         70.9498        146.2749        146.2769          0.3262
 1568.5009          2.1293         71.4047        146.0757        146.0797          0.3255
 1568.6532          2.1327         71.4047        145.4781        145.4822          0.3233
 1568.8055          2.1304         74.1341        145.8765        145.8807          0.3247
 1568.9580          2.1373         72.3145        144.6813        144.6855          0.3204
 1569.1104          2.1293         68.6752        146.0757        146.0781          0.3255
 1569.2628          2.1270         59.5772        146.4741        146.4785          0.3269
 1569.4152          2.1235         55.9380        147.0717        147.0762          0.3290
 1569.5676          2.1166         59.5772        148.2669        148.2696          0.3334
 1569.7200          2.1155         62.7615        148.4661        148.4708          0.3341
 1569.8724          2.1155         67.7654        148.4661        148.4708          0.3341
 1570.0248          2.1132         68.2159        148.8591        148.8619          0.3355
 1570.1772          2.1051         70.0399        150.2590        150.2638          0.3406
 1570.3296          2.1097         67.7654        149.4622        149.4671          0.3377
 1570.4821          2.0959         64.5811        151.8526        151.8557          0.3463
 1570.6344          2.0856         64.1263        153.6454        153.6505          0.3528
 1570.7867          2.0844         63.2164        153.8446        153.8479          0.3535
 1570.9392          2.0867         67.3106        153.4462        153.4514          0.3521
 1571.0916          2.0902         68.2203        152.8486        152.8539          0.3499
 1571.2440          2.0925         67.3106        152.4502        152.4556          0.3485
 1571.3964          2.0913         65.4910        152.6494        152.6511          0.3492
 1571.5488          2.0902         63.6713        152.8486        152.8522          0.3499
 1571.7012          2.0867         59.5772        153.4462        153.4500          0.3521
 1571.8536          2.0867         55.9380        153.4462        153.4500          0.3521
 1572.0060          2.0844         51.8439        153.8446        153.8466          0.3535
 1572.1584          2.0798         52.7537        154.6414        154.6454          0.3564
 1572.3108          2.0856         55.0282        153.6454        153.6495          0.3528
 1572.4633          2.1005         65.4910        151.0558        151.0580          0.3434
 1572.6156          2.1155         69.5851        148.4661        148.4684          0.3341
 1572.7679          2.1235         69.5851        147.0717        147.0741          0.3290
 1572.9204          2.1201         70.4949        147.6693        147.6736          0.3312
 1573.0728          2.0982         68.6752        151.4542        151.4566          0.3449
 1573.2252          2.0821         69.1301        154.2430        154.2455          0.3549
 1573.3776          2.0706         64.5811        156.2351        156.2395          0.3621
 1573.5300          2.0729         60.0321        155.8367        155.8393          0.3607
 1573.6824          2.0775         60.9419        155.0398        155.0444          0.3578
 1573.8348          2.0867         61.8517        153.4462        153.4490          0.3521
 1573.9872          2.0936         64.5811        152.2510        152.2538          0.3477
 1574.1396          2.1063         66.8557        150.0598        150.0645          0.3398
 1574.2920          2.1109         64.5811        149.2630        149.2659          0.3370
 1574.4445          2.1143         62.3066        148.6653        148.6683          0.3348
 1574.5968          2.1086         58.2125        149.6614        149.6644          0.3384
 1574.7491          2.1040         58.6674        150.4582        150.4632          0.3413
 1574.9016          2.0936         62.7615        152.2510        152.2542          0.3477
 1575.0540          2.0879         61.9535        153.2470        153.2521          0.3513
 1575.2064          2.0901         60.1865        152.8506        152.8558          0.3499
 1575.3588          2.0994         58.1559        151.2550        151.2603          0.3441
 1575.5112          2.1074         54.1184        149.8606        149.8641          0.3391
 1575.6636          2.1132         55.0282        148.8645        148.8682          0.3355
 1575.8160          2.1143         57.7576        148.6653        148.6691          0.3348
 1575.9684          2.1109         65.9459        149.2630        149.2668          0.3370
 1576.1208          2.1074         68.6752        149.8606        149.8645          0.3391
 1576.2732          2.1132         66.4008        148.8645        148.8685          0.3355
 1576.4257          2.1247         61.3968        146.8725        146.8766          0.3283
 1576.5780          2.1373         62.3066        144.6813        144.6854          0.3204
 1576.7303          2.1350         60.9419        145.0797        145.0839          0.3219
 1576.8828          2.1258         62.7615        146.6733        146.6776          0.3276
 1577.0352          2.1189         58.6674        147.8685        147.8710          0.3319
 1577.1876          2.1132         55.0282        148.8645        148.8690          0.3355
 1577.3400          2.1166         53.2086        148.2669        148.2715          0.3334
 1577.4924          2.1178         55.4831        148.0677        148.0724          0.3326
 1577.6448          2.1178         57.7576        148.0677        148.0706          0.3326
 1577.7972          2.1166         59.1223        148.2669        148.2717          0.3334
 1577.9496          2.1132         57.7576        148.8645        148.8694          0.3355
 1578.1021          2.1097         58.6674        149.4622        149.4671          0.3377
 1578.2544          2.1051         60.9419        150.2590        150.2640          0.3406
 1578.4069          2.0936         65.0360        152.2510        152.2542          0.3477
 1578.5592          2.0890         65.4910        153.0478        153.0530          0.3506
 1578.7115          2.0856         61.8517        153.6454        153.6507          0.3528
 1578.8640          2.0856         60.9419        153.6454        153.6508          0.3528
 1579.0164          2.0936         61.8517        152.2510        152.2527          0.3477
