~VERSION INFORMATION
 VERS.                          2.0   : CWLS LOG ASCII STANDARD - VERSION 2.0
 WRAP.                          NO    : ONE LINE PER DEPTH STEP
#
~Well Information Section
#MNEM     .UNIT     DATA                DESCRIPTION
#-----    -----     --------            --------------
 STRT     .M        29.2608             : START DEPTH
 STOP     .M        1699.8696           : END DEPTH
 STEP     .M        0.0000              : INCREMENT DEPTH
 NULL     .         -999.2500           : NULL VALUE
 COMP     .                              :
 WELL     .         F06-01              : WELL NAME
 EKB      .M        29.1400             : KELLY BUSHING ELEVATION
 EGL      .M        0.0000              : GROUND LEVEL ELEVATION
 EPD      .M        0.0000              : PERMANENT DATUM ELEVATION
 FLD      .                              :
 XWELL	.M	    607903			: XWELL LOCATION
YWELL		.M	    6077213		: YWELL LOCATION
 PROV     .                              :
 SRVC     .                              :
 PROV     .                              :
 DATE     .                              :
 API      .                              :
#
~Curve Information Section
#MNEM     .UNIT               Curve #DESCRIPTION
#-----    -----               ----   --------------
 DEPTH    .M                  : 1     Name = Domain Curve - Type = DEPTH
 RHOB     .g/cc               : 2     Name = Density_fromDT - Type = Density
 GR       .API                : 3     Name = GR_balanced - Type = Gamma Ray
 DT       .us/ft              : 4     Name = P-wave_1 - Type = P-wave
 DT       .us/ft              : 5     Name = P-wave_corr - Type = P-wave
 UNKNOWN  .fraction           : 6     Name = Porosity_math - Type = Porosity
~A (ASCII LOG DATA)
# ...
 1337.7672          2.1454         73.6792        143.2868        139.4922          0.3154
 1337.9196          2.1396         69.1301        144.2829        140.4980          0.3190
 1338.0720          2.1212         57.7576        147.4701        143.6897          0.3305
 1338.2244          2.1155         50.9341        148.4661        144.6872          0.3341
 1338.3768          2.1224         50.4918        147.2709        143.5080          0.3298
 1338.5292          2.1201         49.7560        147.6693        143.9043          0.3312
 1338.6816          2.1155         49.1145        148.4661        144.7087          0.3341
 1338.8340          2.1110         60.6770        149.2474        145.4959          0.3369
 1338.9865          2.1097         70.9255        149.4622        145.7159          0.3377
 1339.1388          2.1235         78.6831        147.0717        143.3353          0.3290
 1339.2913          2.1362         84.1419        144.8805        141.1527          0.3211
 1339.4436          2.1327         84.1419        145.4781        141.7501          0.3233
 1339.5959          2.1281         81.8674        146.2749        142.5602          0.3262
 1339.7484          2.1281         79.1380        146.2749        142.5615          0.3262
 1339.9008          2.1178         76.4086        148.0677        144.3573          0.3326
 1340.0532          2.1178         67.7654        148.0677        144.3702          0.3326
 1340.2056          2.1178         66.8113        148.0677        144.3698          0.3326
 1340.3580          2.1178         65.3397        148.0677        144.3831          0.3326
 1340.5104          2.1201         64.1263        147.6693        143.9844          0.3312
 1340.6628          2.1684         68.2203        139.3028        135.6287          0.3010
 1340.8152          2.1787         75.0439        137.5100        133.8389          0.2945
 1340.9677          2.1949         89.6007        134.7211        131.0599          0.2845
 1341.1200          2.2133         88.6909        131.5339        127.8779          0.2730
 1341.2725          2.2167         86.8713        130.9362        127.2859          0.2708
 1341.4248          2.2236         81.8674        129.7410        126.0990          0.2665
 1341.5771          2.2018         72.3145        133.5259        129.8915          0.2802
 1341.7296          2.1822         69.1301        136.9124        133.2802          0.2924
 1341.8820          2.1730         67.3106        138.5060        134.8800          0.2981
 1342.0344          2.1603         64.5811        140.6972        137.0772          0.3060
 1342.1868          2.1592         58.6674        140.8964        137.2818          0.3068
 1342.3392          2.1396         60.4870        144.2829        140.6760          0.3190
 1342.4916          2.1304         64.5811        145.8765        142.2702          0.3247
 1342.6440          2.1224         70.0399        147.2709        143.6752          0.3298
 1342.7964          2.1201         68.2203        147.6693        144.0796          0.3312
 1342.9489          2.1270         65.0360        146.4741        142.8888          0.3269
 1343.1012          2.1224         61.8517        147.2709        143.6906          0.3298
 1343.2535          2.1132         60.4870        148.8645        145.2985          0.3355
 1343.4060          2.1109         65.4910        149.2630        145.6966          0.3370
 1343.5583          2.1109         64.1263        149.2630        145.7061          0.3370
 1343.7108          2.1143         60.0321        148.6653        145.1097          0.3348
 1343.8632          2.1143         53.2086        148.6653        145.1163          0.3348
 1344.0156          2.1109         52.2988        149.2630        145.7215          0.3370
 1344.1680          2.1086         55.0282        149.6614        146.1306          0.3384
 1344.3204          2.1120         54.1184        149.0638        145.5348          0.3362
 1344.4728          2.1201         52.7537        147.6693        144.1469          0.3312
 1344.6252          2.1189         50.4792        147.8685        144.3510          0.3319
 1344.7776          2.1143         51.3890        148.6653        145.1546          0.3348
 1344.9301          2.1109         54.5733        149.2630        145.7581          0.3370
 1345.0824          2.1132         55.9929        148.8600        145.3587          0.3355
 1345.2347          2.1167         58.2125        148.2528        144.7603          0.3333
 1345.3872          2.1201         55.4831        147.6693        144.1797          0.3312
 1345.5396          2.1178         56.3929        148.0677        144.5883          0.3326
 1345.6920          2.1051         51.8439        150.2590        146.7748          0.3406
 1345.8444          2.1097         53.6635        149.4622        145.9934          0.3377
 1345.9968          2.1086         57.7576        149.6614        146.1996          0.3384
 1346.1492          2.1074         58.2125        149.8606        146.3982          0.3391
 1346.3016          2.1074         54.1184        149.8606        146.4083          0.3391
 1346.4540          2.1074         55.0282        149.8606        146.4101          0.3391
 1346.6064          2.1109         55.0282        149.2630        145.8190          0.3370
 1346.7588          2.1178         56.3929        148.0677        144.6313          0.3326
 1346.9113          2.1212         57.3027        147.4701        144.0414          0.3305
 1347.0636          2.1258         56.3929        146.6733        143.2486          0.3276
 1347.2159          2.1178         54.1184        148.0677        144.6464          0.3326
 1347.3684          2.1120         52.9653        149.0638        145.6467          0.3362
 1347.5208          2.0902         53.6919        152.8486        149.4435          0.3499
 1347.6732          2.0879         56.8478        153.2470        149.8391          0.3513
 1347.8256          2.0925         69.1301        152.4502        149.0507          0.3485
 1347.9780          2.1040         70.0399        150.4582        147.0661          0.3413
 1348.1304          2.1005         66.8557        151.0558        147.6660          0.3434
 1348.2828          2.1097         61.8517        149.4622        146.0803          0.3377
 1348.4352          2.1086         63.2164        149.6614        146.2819          0.3384
 1348.5876          2.1074         66.8557        149.8606        146.4921          0.3391
 1348.7400          2.1028         67.7654        150.6574        147.2918          0.3420
 1348.8925          2.1109         61.8517        149.2630        145.9006          0.3370
 1349.0448          2.1109         55.9380        149.2630        145.9066          0.3370
 1349.1971          2.1109         51.8439        149.2630        145.9162          0.3370
 1349.3496          2.1120         51.3890        149.0638        145.7145          0.3362
 1349.5020          2.1120         54.1184        149.0638        145.7251          0.3362
 1349.6544          2.1097         55.9380        149.4622        146.1280          0.3377
 1349.8068          2.1120         58.6674        149.0638        145.7284          0.3362
 1349.9592          2.1120         58.6674        149.0638        145.7447          0.3362
 1350.1116          2.1155         58.6674        148.4567        145.1333          0.3340
 1350.2640          2.1086         56.8478        149.6614        146.3472          0.3384
 1350.4164          2.1097         56.8478        149.4622        146.1561          0.3377
 1350.5688          2.1166         56.8478        148.2669        144.9645          0.3334
 1350.7212          2.1201         55.9380        147.6693        144.3693          0.3312
 1350.8737          2.1281         52.7537        146.2749        142.9830          0.3262
 1351.0260          2.1304         50.0243        145.8765        142.5854          0.3247
