~VERSION INFORMATION
 VERS.                          2.0   : CWLS LOG ASCII STANDARD - VERSION 2.0
 WRAP.                          NO    : ONE LINE PER DEPTH STEP
#
~Well Information Section
#MNEM     .UNIT     DATA                DESCRIPTION
#-----    -----     --------            --------------
 STRT     .M        29.2608             : START DEPTH
 STOP     .M        1699.8696           : END DEPTH
 STEP     .M        0.0000              : INCREMENT DEPTH
 NULL     .         -999.2500           : NULL VALUE
 COMP     .                              :
 WELL     .         F06-01              : WELL NAME
 EKB      .M        29.1400             : KELLY BUSHING ELEVATION
 EGL      .M        0.0000              : GROUND LEVEL ELEVATION
 EPD      .M        0.0000              : PERMANENT DATUM ELEVATION
 FLD      .                              :
 XWELL	.M	    607903			: XWELL LOCATION
YWELL		.M	    6077213		: YWELL LOCATION
 PROV     .                              :
 SRVC     .                              :
 PROV     .                              :
 DATE     .                              :
 API      .                              :
#
~Curve Information Section
#MNEM     .UNIT               Curve #DESCRIPTION
#-----    -----               ----   --------------
 DEPTH    .M                  : 1     Name = Domain Curve - Type = DEPTH
 RHOB     .g/cc               : 2     Name = Density_fromDT - Type = Density
 GR       .API                : 3     Name = GR_balanced - Type = Gamma Ray
 DT       .us/ft              : 4     Name = P-wave_1 - Type = P-wave
 DT       .us/ft              : 5     Name = P-wave_corr - Type = P-wave
 UNKNOWN  .fraction           : 6     Name = Porosity_math - Type = Porosity
~A (ASCII LOG DATA)
# ...
 1445.0568          2.1097         43.6557        149.4622        145.3861          0.3377
 1445.2092          2.1051         43.2008        150.2590        146.1876          0.3406
 1445.3616          2.0948         42.7459        152.0518        147.9840          0.3470
 1445.5140          2.0913         43.6557        152.6494        148.5883          0.3492
 1445.6664          2.0890         44.1106        153.0478        148.9908          0.3506
 1445.8188          2.0879         45.0204        153.2470        149.1984          0.3513
 1445.9712          2.0821         47.2949        154.2430        150.1932          0.3549
 1446.1237          2.0833         52.7537        154.0438        150.0014          0.3542
 1446.2760          2.0844         53.2086        153.8446        149.8047          0.3535
 1446.4283          2.0879         50.9341        153.2470        149.2169          0.3513
 1446.5808          2.0925         49.1145        152.4502        148.4201          0.3485
 1446.7332          2.0959         45.4753        151.8526        147.8312          0.3463
 1446.8856          2.1017         41.3812        150.8566        146.8351          0.3427
 1447.0380          2.1005         42.7459        151.0558        147.0416          0.3434
 1447.1904          2.0971         47.2949        151.6534        147.6469          0.3456
 1447.3428          2.0942         49.5694        152.1451        148.1403          0.3474
 1447.4952          2.0982         50.9341        151.4542        147.4581          0.3449
 1447.6476          2.1028         53.6635        150.6574        146.6610          0.3420
 1447.8000          2.1097         55.0282        149.4622        145.4761          0.3377
 1447.9524          2.1132         53.2086        148.8645        144.8790          0.3355
 1448.1049          2.1120         45.4753        149.0638        145.0868          0.3362
 1448.2572          2.1074         46.8400        149.8606        145.8844          0.3391
 1448.4095          2.1069         48.6596        149.9426        145.9757          0.3394
 1448.5620          2.1017         47.2949        150.8566        146.8897          0.3427
 1448.7144          2.0971         53.6635        151.6534        147.6970          0.3456
 1448.8668          2.0913         52.2988        152.6494        148.6928          0.3492
 1449.0192          2.0902         44.5655        152.8486        148.8971          0.3499
 1449.1716          2.0936         38.1969        152.2510        148.3092          0.3477
 1449.3240          2.0948         39.1067        152.0518        148.1113          0.3470
 1449.4764          2.0955         40.0165        151.9234        147.9910          0.3466
 1449.6288          2.0959         39.1067        151.8526        147.9203          0.3463
 1449.7812          2.0961         42.7459        151.8259        147.9035          0.3462
 1449.9336          2.0968         43.2008        151.7057        147.7838          0.3458
 1450.0861          2.0971         44.1785        151.6534        147.7397          0.3456
 1450.2384          2.0959         45.0204        151.8526        147.9414          0.3463
 1450.3907          2.0936         45.4753        152.2510        148.3471          0.3477
 1450.5432          2.0936         45.0204        152.2510        148.3504          0.3477
 1450.6956          2.0936         44.5655        152.2510        148.3571          0.3477
 1450.8480          2.0925         44.5655        152.4502        148.5576          0.3485
 1451.0004          2.0948         45.0204        152.0518        148.1644          0.3470
 1451.1528          2.0982         46.8400        151.4542        147.5777          0.3449
 1451.3052          2.1028         48.6596        150.6574        146.7808          0.3420
 1451.4576          2.1051         52.2988        150.2590        146.3897          0.3406
 1451.6100          2.1086         53.6635        149.6614        145.7960          0.3384
 1451.7625          2.1097         52.7537        149.4622        145.6030          0.3377
 1451.9148          2.1120         50.9341        149.0638        145.2063          0.3362
 1452.0673          2.1120         50.4792        149.0638        145.2146          0.3362
 1452.2196          2.1063         49.5694        150.0598        146.2129          0.3398
 1452.3719          2.1063         44.1106        150.0598        146.2222          0.3398
 1452.5244          2.1028         39.1067        150.6574        146.8187          0.3420
 1452.6768          2.0994         38.1969        151.2550        147.4284          0.3441
 1452.8292          2.0925         38.1969        152.4502        148.6212          0.3485
 1452.9816          2.0856         43.6557        153.6454        149.8232          0.3528
 1453.1340          2.0775         45.4753        155.0398        151.2264          0.3578
 1453.2864          2.0764         46.3851        155.2390        151.4273          0.3585
 1453.4388          2.0741         45.0204        155.6375        151.8351          0.3600
 1453.5912          2.0787         42.2910        154.8406        151.0397          0.3571
 1453.7437          2.0856         43.6557        153.6454        149.8503          0.3528
 1453.8960          2.1040         46.8400        150.4582        146.6666          0.3413
 1454.0483          2.1143         45.9302        148.6653        144.8829          0.3348
 1454.2008          2.1247         47.7498        146.8736        143.0898          0.3283
 1454.3531          2.1258         44.5655        146.6733        142.9007          0.3276
 1454.5056          2.1224         43.6557        147.2709        143.4978          0.3298
 1454.6580          2.1109         43.6557        149.2630        145.4957          0.3370
 1454.8104          2.1040         44.5655        150.4582        146.6996          0.3413
 1454.9628          2.0994         45.9302        151.2550        147.4973          0.3441
 1455.1152          2.0903         50.4792        152.8276        149.0788          0.3498
 1455.2676          2.0844         51.4570        153.8446        150.0970          0.3535
 1455.4200          2.0741         49.1145        155.6375        151.8987          0.3600
 1455.5724          2.0671         47.2949        156.8327        153.0975          0.3643
 1455.7249          2.0706         47.2949        156.2351        152.5055          0.3621
 1455.8772          2.0752         46.8400        155.4382        151.7103          0.3592
 1456.0295          2.0833         48.6596        154.0438        150.3264          0.3542
 1456.1820          2.1040         53.2086        150.4582        146.7412          0.3413
 1456.3344          2.1155         45.4753        148.4661        144.7569          0.3341
 1456.4868          2.1212         36.8322        147.4701        143.7614          0.3305
 1456.6392          2.1235         35.0126        147.0717        143.3711          0.3290
 1456.7916          2.1178         36.8322        148.0677        144.3733          0.3326
 1456.9440          2.1155         42.2910        148.4661        144.7766          0.3341
 1457.0964          2.1109         43.6557        149.2630        145.5798          0.3370
 1457.2488          2.1028         45.4753        150.6574        146.9734          0.3420
 1457.4012          2.0936         45.9302        152.2510        148.5758          0.3477
 1457.5536          2.0913         47.2949        152.6494        148.9776          0.3492
 1457.7061          2.0925         46.8400        152.4502        148.7855          0.3485
 1457.8584          2.1005         45.4753        151.0558        147.3943          0.3434
 1458.0107          2.1017         46.3851        150.8566        147.2039          0.3427
 1458.1632          2.0994         45.4753        151.2550        147.6022          0.3441
 1458.3156          2.0948         46.8400        152.0518        148.4104          0.3470
