~VERSION INFORMATION
 VERS.                          2.0   : CWLS LOG ASCII STANDARD - VERSION 2.0
 WRAP.                          NO    : ONE LINE PER DEPTH STEP
#
~Well Information Section
#MNEM     .UNIT     DATA                DESCRIPTION
#-----    -----     --------            --------------
 STRT     .M        29.2608             : START DEPTH
 STOP     .M        1699.8696           : END DEPTH
 STEP     .M        0.0000              : INCREMENT DEPTH
 NULL     .         -999.2500           : NULL VALUE
 COMP     .                              :
 WELL     .         F06-01              : WELL NAME
 EKB      .M        29.1400             : KELLY BUSHING ELEVATION
 EGL      .M        0.0000              : GROUND LEVEL ELEVATION
 EPD      .M        0.0000              : PERMANENT DATUM ELEVATION
 FLD      .                              :
 XWELL	.M	    607903			: XWELL LOCATION
YWELL		.M	    6077213		: YWELL LOCATION
 PROV     .                              :
 SRVC     .                              :
 PROV     .                              :
 DATE     .                              :
 API      .                              :
#
~Curve Information Section
#MNEM     .UNIT               Curve #DESCRIPTION
#-----    -----               ----   --------------
 DEPTH    .M                  : 1     Name = Domain Curve - Type = DEPTH
 RHOB     .g/cc               : 2     Name = Density_fromDT - Type = Density
 GR       .API                : 3     Name = GR_balanced - Type = Gamma Ray
 DT       .us/ft              : 4     Name = P-wave_1 - Type = P-wave
 DT       .us/ft              : 5     Name = P-wave_corr - Type = P-wave
 UNKNOWN  .fraction           : 6     Name = Porosity_math - Type = Porosity
~A (ASCII LOG DATA)
# ...
 1686.4584          2.2823         67.3106        119.5817        119.5860          0.2298
 1686.6108          2.2834         73.2243        119.3825        119.3868          0.2291
 1686.7632          2.2834         71.8596        119.3825        119.3869          0.2291
 1686.9156          2.2811         70.9498        119.7809        119.7835          0.2305
 1687.0680          2.2811         73.2243        119.7809        119.7855          0.2305
 1687.2205          2.2869         66.8557        118.7849        118.7896          0.2269
 1687.3728          2.3272         61.3968        111.8128        111.8175          0.2018
 1687.5251          2.3387         61.8517        109.8207        109.8256          0.1946
 1687.6776          2.3387         60.9419        109.8207        109.8257          0.1946
 1687.8300          2.5101         51.8439         80.1394         80.1426          0.0874
 1687.9824          2.5124         53.6635         79.7410         79.7461          0.0860
 1688.1348          2.3410         56.3929        109.4223        109.4275          0.1931
 1688.2872          2.3743         61.8517        103.6454        103.6526          0.1723
 1688.4396          2.2754         66.8557        120.7769        120.7804          0.2341
 1688.5920          2.2432         63.6713        126.3546        126.3563          0.2543
 1688.7444          2.2409         64.5811        126.7530        126.7567          0.2557
 1688.8969          2.2512         67.3106        124.9602        124.9639          0.2492
 1689.0492          2.2593         66.4008        123.5657        123.5696          0.2442
 1689.2017          2.3214         68.2203        112.8088        112.8127          0.2054
 1689.3540          2.3801         65.9459        102.6494        102.6534          0.1687
 1689.5063          2.4388         56.3929         92.4900         92.4942          0.1320
 1689.6588          2.4342         53.2086         93.2868         93.2892          0.1349
 1689.8112          2.4077         48.2047         97.8685         97.8728          0.1514
 1689.9636          2.4365         47.7498         92.8884         92.8928          0.1335
 1690.1160          2.2696         57.3027        121.7729        121.7773          0.2377
 1690.2684          2.2639         66.8557        122.7689        122.7734          0.2413
 1690.4208          2.2719         70.4949        121.3745        121.3772          0.2363
 1690.5732          2.2788         74.5890        120.1793        120.1839          0.2320
 1690.7256          2.2846         75.4988        119.1833        119.1880          0.2284
 1690.8781          2.2869         73.6792        118.7849        118.7897          0.2269
 1691.0304          2.3042         65.4910        115.7968        115.8018          0.2162
 1691.1827          2.3099         66.4008        114.8008        114.8058          0.2126
 1691.3352          2.3295         61.3968        111.4143        111.4213          0.2003
 1691.4875          2.3283         66.4008        111.6135        111.6188          0.2011
 1691.6400          2.3249         69.5851        112.2112        112.2165          0.2032
 1691.7924          2.3203         70.0399        113.0080        113.0096          0.2061
 1691.9448          2.3180         69.5851        113.4064        113.4100          0.2075
 1692.0972          2.2443         69.5851        126.1554        126.1591          0.2535
 1692.2496          2.2397         70.4949        126.9522        126.9560          0.2564
 1692.4020          2.2409         71.4047        126.7530        126.7569          0.2557
 1692.5544          2.2455         72.3145        125.9562        125.9601          0.2528
 1692.7068          2.2478         70.4949        125.5578        125.5618          0.2514
 1692.8593          2.2489         66.4008        125.3586        125.3627          0.2507
 1693.0116          2.2547         69.5851        124.3625        124.3687          0.2471
 1693.1639          2.2478         66.8557        125.5578        125.5640          0.2514
 1693.3164          2.2340         64.1263        127.9482        127.9546          0.2600
 1693.4688          2.2432         63.6713        126.3546        126.3592          0.2543
 1693.6212          2.2570         64.1263        123.9641        123.9707          0.2456
 1693.7736          2.2639         63.2164        122.7689        122.7738          0.2413
 1693.9260          2.2650         66.4008        122.5697        122.5747          0.2406
 1694.0784          2.2650         64.1263        122.5697        122.5748          0.2406
 1694.2308          2.2616         59.5772        123.1673        123.1724          0.2428
 1694.3832          2.2535         58.6674        124.5618        124.5650          0.2478
 1694.5356          2.2455         64.5811        125.9562        125.9614          0.2528
 1694.6880          2.2466         67.3106        125.7570        125.7604          0.2521
 1694.8405          2.2443         64.1263        126.1554        126.1608          0.2535
 1694.9928          2.2432         65.4910        126.3546        126.3563          0.2543
 1695.1451          2.2432         61.8517        126.3546        126.3582          0.2543
 1695.2976          2.2420         73.2243        126.5538        126.5556          0.2550
 1695.4500          2.2420         76.4086        126.5538        126.5557          0.2550
 1695.6024          2.2443         72.3145        126.1554        126.1592          0.2535
 1695.7548          2.2570         64.5811        123.9641        123.9662          0.2456
 1695.9072          2.2616         61.3968        123.1673        123.1713          0.2428
 1696.0596          2.2696         60.9419        121.7729        121.7751          0.2377
 1696.2120          2.2777         62.3066        120.3785        120.3807          0.2327
 1696.3644          2.2811         67.7654        119.7809        119.7850          0.2305
 1696.5168          2.2765         70.0399        120.5777        120.5800          0.2334
 1696.6692          2.2708         69.5851        121.5737        121.5780          0.2370
 1696.8217          2.2639         66.8557        122.7689        122.7733          0.2413
 1696.9740          2.2616         59.9693        123.1673        123.1718          0.2428
 1697.1263          2.2639         56.8478        122.7689        122.7716          0.2413
 1697.2788          2.2662         58.2125        122.3705        122.3751          0.2399
 1697.4312          2.2742         65.4910        120.9761        120.9808          0.2348
 1697.5836          2.2847         69.1301        119.1586        119.1615          0.2283
 1697.7360          2.2950         68.6752        117.3904        117.3934          0.2219
 1697.8884          2.2996         63.2164        116.5936        116.5966          0.2190
 1698.0408          2.2938         62.3066        117.5896        117.5945          0.2226
 1698.1932          2.2639         59.5772        122.7689        122.7720          0.2413
 1698.3456          2.2443         61.2181        126.1554        126.1585          0.2535
 1698.4980          2.2501         60.0321        125.1594        125.1644          0.2499
 1698.6504          2.2535         57.3027        124.5618        124.5650          0.2478
 1698.8029          2.2575         55.9380        123.8764        123.8797          0.2453
 1698.9552          2.2593         56.9357        123.5657        123.5710          0.2442
 1699.1075          2.2558         59.5772        124.1634        124.1668          0.2464
 1699.2600          2.2512         64.5811        124.9602        124.9618          0.2492
 1699.4124          2.2558         65.9459        124.1634        124.1650          0.2464
 1699.5648          2.2616         67.7654        123.1673        123.1710          0.2428
 1699.7172          2.2639         69.1301        122.7689        122.7707          0.2413
