~VERSION INFORMATION
 VERS.                          2.0   : CWLS LOG ASCII STANDARD - VERSION 2.0
 WRAP.                          NO    : ONE LINE PER DEPTH STEP
#
~Well Information Section
#MNEM     .UNIT     DATA                DESCRIPTION
#-----    -----     --------            --------------
 STRT     .M        29.2608             : START DEPTH
 STOP     .M        1699.8696           : END DEPTH
 STEP     .M        0.0000              : INCREMENT DEPTH
 NULL     .         -999.2500           : NULL VALUE
 COMP     .                              :
 WELL     .         F06-01              : WELL NAME
 EKB      .M        29.1400             : KELLY BUSHING ELEVATION
 EGL      .M        0.0000              : GROUND LEVEL ELEVATION
 EPD      .M        0.0000              : PERMANENT DATUM ELEVATION
 FLD      .                              :
 XWELL	.M	    607903			: XWELL LOCATION
YWELL		.M	    6077213		: YWELL LOCATION
 PROV     .                              :
 SRVC     .                              :
 PROV     .                              :
 DATE     .                              :
 API      .                              :
#
~Curve Information Section
#MNEM     .UNIT               Curve #DESCRIPTION
#-----    -----               ----   --------------
 DEPTH    .M                  : 1     Name = Domain Curve - Type = DEPTH
 RHOB     .g/cc               : 2     Name = Density_fromDT - Type = Density
 GR       .API                : 3     Name = GR_balanced - Type = Gamma Ray
 DT       .us/ft              : 4     Name = P-wave_1 - Type = P-wave
 DT       .us/ft              : 5     Name = P-wave_corr - Type = P-wave
 UNKNOWN  .fraction           : 6     Name = Porosity_math - Type = Porosity
~A (ASCII LOG DATA)
# ...
 1096.3656          2.2075         45.9302        132.5299        141.7224          0.2766
 1096.5179          2.2006         53.6635        133.7251        142.9021          0.2809
 1096.6704          2.1926         52.2988        135.1195        144.2913          0.2859
 1096.8228          2.1932         47.7498        135.0013        144.1598          0.2855
 1096.9752          2.1940         43.2008        134.8636        144.0171          0.2850
 1097.1276          2.1949         39.5616        134.7211        143.8609          0.2845
 1097.2800          2.1972         44.1106        134.3227        143.4555          0.2830
 1097.4324          2.1960         47.7498        134.5219        143.6453          0.2837
 1097.5848          2.1937         48.6596        134.9203        144.0363          0.2852
 1097.7372          2.1903         45.0204        135.5179        144.6198          0.2873
 1097.8896          2.1903         43.6557        135.5179        144.6125          0.2873
 1098.0420          2.1922         44.5655        135.1766        144.2684          0.2861
 1098.1945          2.1936         45.4753        134.9357        144.0062          0.2852
 1098.3468          2.1949         45.0204        134.7211        143.7939          0.2845
 1098.4991          2.1937         42.2910        134.9203        143.9742          0.2852
 1098.6516          2.1934         40.9263        134.9733        144.0174          0.2854
 1098.8040          2.1961         41.8361        134.5141        143.5504          0.2837
 1098.9564          2.2006         46.3851        133.7251        142.7514          0.2809
 1099.1088          2.2041         48.6596        133.1275        142.1455          0.2787
 1099.2612          2.2018         50.0243        133.5259        142.5285          0.2802
 1099.4136          2.1983         51.8439        134.1235        143.1172          0.2823
 1099.5660          2.1903         52.2988        135.5179        144.5042          0.2873
 1099.7184          2.1834         52.7537        136.7132        145.6820          0.2917
 1099.8708          2.1764         44.5655        137.9230        146.8881          0.2960
 1100.0232          2.2777         41.3280        120.3785        129.3290          0.2327
 1100.1757          2.1753         38.8998        138.1001        147.0374          0.2967
 1100.3280          2.1787         38.6518        137.5100        146.4373          0.2945
 1100.4803          2.1763         38.1969        137.9417        146.8581          0.2961
 1100.6328          2.1844         38.6518        136.5340        145.4407          0.2910
 1100.7852          2.1886         39.1067        135.8072        144.6993          0.2884
 1100.9376          2.1928         39.5616        135.0804        143.9612          0.2858
 1101.0900          2.2041         40.0165        133.1275        141.9959          0.2787
 1101.2424          2.1983         40.9263        134.1235        142.9811          0.2823
 1101.3948          2.1960         43.2008        134.5219        143.3666          0.2837
 1101.5472          2.1949         43.6557        134.7211        143.5539          0.2845
 1101.6996          2.1972         45.9302        134.3227        143.1420          0.2830
 1101.8521          2.1983         46.8400        134.1235        142.9312          0.2823
 1102.0044          2.1983         48.2047        134.1235        142.9199          0.2823
 1102.1569          2.1983         46.8400        134.1235        142.9031          0.2823
 1102.3092          2.1983         44.5655        134.1235        142.8963          0.2823
 1102.4615          2.1995         42.2910        133.9243        142.6782          0.2816
 1102.6140          2.1983         39.5616        134.1235        142.8643          0.2823
 1102.7664          2.1983         39.1067        134.1235        142.8542          0.2823
 1102.9188          2.1972         39.5616        134.3227        143.0365          0.2830
 1103.0712          2.1972         40.9263        134.3227        143.0224          0.2830
 1103.2236          2.2041         39.5616        133.1275        141.8133          0.2787
 1103.3760          2.2006         40.4714        133.7251        142.3999          0.2809
 1103.5284          2.2006         45.9302        133.7251        142.3812          0.2809
 1103.6808          2.2006         53.6635        133.7251        142.3661          0.2809
 1103.8333          2.1995         53.2086        133.9243        142.5573          0.2816
 1103.9856          2.2029         52.2988        133.3267        141.9402          0.2794
 1104.1379          2.2064         44.5655        132.7291        141.3275          0.2773
 1104.2904          2.2110         37.7420        131.9323        140.5146          0.2744
 1104.4427          2.2133         36.3773        131.5339        140.0987          0.2730
 1104.5952          2.2052         37.7420        132.9283        141.4829          0.2780
 1104.7476          2.1995         40.9263        133.9243        142.4580          0.2816
 1104.9000          2.1949         40.9263        134.7211        143.2442          0.2845
 1105.0524          2.1983         50.0243        134.1235        142.6239          0.2823
 1105.2048          2.2013         41.3812        133.6118        142.1010          0.2805
 1105.3572          2.2041         45.9302        133.1275        141.5941          0.2787
 1105.5096          2.2029         51.8439        133.3267        141.7836          0.2794
 1105.6620          2.2041         50.0243        133.1275        141.5624          0.2787
 1105.8145          2.2087         47.7498        132.3307        140.7519          0.2758
 1105.9668          2.2190         49.5694        130.5378        138.9429          0.2694
 1106.1191          2.2190         52.2988        130.5378        138.9223          0.2694
 1106.2716          2.2121         46.3851        131.7331        140.1002          0.2737
 1106.4240          2.2006         45.4753        133.7251        142.0748          0.2809
 1106.5764          2.1960         44.1106        134.5219        142.8488          0.2837
 1106.7288          2.1960         43.6557        134.5219        142.8341          0.2837
 1106.8812          2.2006         44.1106        133.7251        142.0221          0.2809
 1107.0336          2.2006         44.1106        133.7251        141.9986          0.2809
 1107.1860          2.1995         42.7459        133.9243        142.1817          0.2816
 1107.3384          2.1914         40.0165        135.3187        143.5545          0.2866
 1107.4908          2.1960         45.9302        134.5219        142.7417          0.2837
 1107.6432          2.2006         52.2988        133.7251        141.9270          0.2809
 1107.7957          2.2029         55.0282        133.3267        141.5075          0.2794
 1107.9480          2.2041         49.7450        133.1275        141.2943          0.2787
 1108.1003          2.2018         43.6709        133.5259        141.6639          0.2802
 1108.2528          2.1995         37.5969        133.9243        142.0436          0.2816
 1108.4052          2.1972         33.1930        134.3227        142.4227          0.2830
 1108.5576          2.1937         29.5538        134.9203        142.9963          0.2852
 1108.7100          2.1903         28.1891        135.5179        143.5702          0.2873
 1108.8624          2.1914         32.2832        135.3187        143.3503          0.2866
 1109.0148          2.1937         38.1969        134.9203        142.9342          0.2852
 1109.1672          2.1937         43.6557        134.9203        142.9097          0.2852
 1109.3196          2.1960         48.6596        134.5219        142.4887          0.2837
 1109.4720          2.1937         48.6596        134.9203        142.8687          0.2852
 1109.6244          2.1926         45.4753        135.1195        143.0410          0.2859
